Fuel Type Code,Station Name,Street Address,Intersection Directions,City,State,ZIP,Plus4,Station Phone,Status Code,Expected Date,Groups With Access Code,Access Days Time,Cards Accepted,BD Blends,NG Fill Type Code,NG PSI,EV Level1 EVSE Num,EV Level2 EVSE Num,EV DC Fast Count,EV Other Info,EV Network,EV Network Web,Geocode Status,Latitude,Longitude,Date Last Confirmed,ID,Updated At,Owner Type Code,Federal Agency ID,Federal Agency Name,Open Date,Hydrogen Status Link,NG Vehicle Class,LPG Primary,E85 Blender Pump,EV Connector Types,Country,Intersection Directions (French),Access Days Time (French),BD Blends (French),Groups With Access Code (French),Hydrogen Is Retail,Access Code,Access Detail Code,Federal Agency Code,Facility Type,CNG Dispenser Num,CNG On-Site Renewable Source,CNG Total Compression Capacity,CNG Storage Capacity,LNG On-Site Renewable Source,E85 Other Ethanol Blends,EV Pricing,EV Pricing (French),LPG Nozzle Types,Hydrogen Pressures,Hydrogen Standards,CNG Fill Type Code,CNG PSI,CNG Vehicle Class,LNG Vehicle Class,EV On-Site Renewable Source,Restricted Access,EV Total Port Count (Beta),EV CHAdeMO Port Count (Beta),EV J1772 Port Count (Beta),EV CCS Port Count (Beta),EV NEMA 14-50 Port Count (Beta),EV NEMA 515 Port Count (Beta),EV NEMA 520 Port Count (Beta),EV Tesla Port Count (Beta),EV CCS 150+ kW Port Count (Beta)
ELEC,Oregon Museum of Science and Industry (OMSI) - South Parking Lot,1945 SE Water Ave,Under solar canopy in east parking lot,Portland,OR,97214,,800-955-6674,E,,Public,24 hours daily,,,,,2,2,,,Non-Networked,,GPS,45.508396,-122.664667,2021-06-07,33378,2022-02-10 19:42:29 UTC,P,,,2008-10-15,,,,,J1772 NEMA515,US,,,,Public,,public,,,MUSEUM,,,,,,,Free,,,,,,,,,SOLAR,false,4,0,2,0,0,2,0,0,0
ELEC,City of Keizer - City Hall,930 Chemawa Rd NE,,Salem,OR,97303,,503-390-3700,E,,Public,24 hours daily,,,,,2,,,,Non-Networked,,200-9,44.99574,-123.019758,2021-06-07,34849,2022-02-10 19:42:29 UTC,SG,,,2009-10-15,,,,,NEMA520,US,,,,Public,,public,,,PARKING_LOT,,,,,,,Free,,,,,,,,,,false,2,0,0,0,0,0,2,0,0
ELEC,Nike - LA Garage,1 Bowerman Dr,,Beaverton,OR,97006,,,E,,Private,Employee use only,,,,,,6,,,Non-Networked,,GPS,45.508795,-122.8249,2021-04-08,34859,2022-05-13 23:37:15 UTC,P,,,2017-02-21,,,,,J1772,US,,,,Privé,,private,,,OFFICE_BLDG,,,,,,,,,,,,,,,,WIND,,6,0,6,0,0,0,0,0,0
ELEC,LINCOLN CITY TAFT DUAL 1,1226 SW 50th St,,Lincoln City,OR,97367,,888-758-4389,E,,Public,24 hours daily,,,,,,2,,,ChargePoint Network,http://www.chargepoint.com/,GPS,44.928439,-124.015824,2022-11-10,35258,2022-11-10 00:51:03 UTC,,,,2010-05-15,,,,,J1772,US,,,,Public,,public,,,,,,,,,,,,,,,,,,,,,2,0,2,0,0,0,0,0,0
ELEC,LBCC  LBCC DUAL 2,Ellingson Rd SW,,Albany,OR,97321,,888-758-4389,E,,Public,24 hours daily,,,,,,2,,,ChargePoint Network,http://www.chargepoint.com/,GPS,44.586123,-123.115389,2022-11-10,35480,2022-11-10 00:50:39 UTC,,,,2009-01-15,,,,,J1772,US,,,,Public,,public,,,,,,,,,,,,,,,,,,,,,2,0,2,0,0,0,0,0,0
ELEC,OEG,3200 NW Yeon Ave,,Portland,OR,97210,,,E,,Private,Employee use only,,,,,,1,,,Non-Networked,,200-9,45.545898,-122.707102,2022-04-06,35557,2022-04-06 14:08:04 UTC,P,,,2009-11-01,,,,,J1772,US,,,,Privé,,private,,,UTILITY,,,,,,,Free,,,,,,,,,,,1,0,1,0,0,0,0,0,0
ELEC,Lane Community College,4000 E 30th Ave,Under solar canopy; Lot B,Eugene,OR,97405,,541-463-3000,E,,Public,"Employee, student, and visitor use only",,,,,10,10,,,Non-Networked,,200-9,44.009797,-123.033213,2021-06-07,36371,2022-04-28 20:01:31 UTC,LG,,,2010-09-05,,,,,J1772 NEMA520,US,,,,Public,,public,,,COLLEGE_CAMPUS,,,,,,,Free,,,,,,,,,SOLAR,true,20,0,10,0,0,0,10,0,0
ELEC,HILLSBORO OR MAIN ST 1,150 E Main St,,Hillsboro,OR,97123,,888-758-4389,E,,Public,24 hours daily,,,,,,2,,,ChargePoint Network,http://www.chargepoint.com/,GPS,45.522609,-122.988535,2022-11-10,37170,2022-11-10 00:50:38 UTC,,,,2010-11-15,,,,,J1772,US,,,,Public,,public,,,,,,,,,,,,,,,,,,,,,2,0,2,0,0,0,0,0,0
ELEC,HILLSBORO OR EV-8,253 SE 8th Ave,,Hillsboro,OR,97123,,888-758-4389,E,,Public,24 hours daily,,,,,,2,,,ChargePoint Network,http://www.chargepoint.com/,GPS,45.520533,-122.978089,2022-11-10,37171,2022-11-10 01:04:48 UTC,,,,2010-11-15,,,,,J1772,US,,,,Public,,public,,,,,,,,,,,,,,,,,,,,,2,0,2,0,0,0,0,0,0
ELEC,Oregon Museum of Science and Industry (OMSI) - North Parking Lot,1945 SE Water Ave,Near building in north parking lot,Portland,OR,97214,,800-955-6674,E,,Public,24 hours daily,,,,,,1,,,Non-Networked,,GPS,45.509326,-122.666392,2021-06-07,37651,2022-02-10 19:42:29 UTC,P,,,2008-10-15,,,,,J1772,US,,,,Public,,public,,,MUSEUM,,,,,,,Free,,,,,,,,,,false,1,0,1,0,0,0,0,0,0
ELEC,Carr Nissan,3855 SW Cedar Hills Blvd,,Beaverton,OR,97005,,503-643-8676,E,,Public - Call ahead,Dealership business hours,,,,,,1,,,Non-Networked,,200-9,45.491783,-122.81107,2020-06-09,39827,2021-03-11 23:22:17 UTC,P,,,2011-03-15,,,,,J1772,US,,,,Public - Appeler à l'avance,,public,CALL,,CAR_DEALER,,,,,,,Free,,,,,,,,,,false,1,0,1,0,0,0,0,0,0
ELEC,Lithia Nissan of Bend,1835 NE Highway 20,,Bend,OR,97701,,541-389-1177,E,,Public - Call ahead,Dealership business hours,,,,,,2,1,,Non-Networked,,GPS,44.055213,-121.277279,2022-03-07,39828,2022-03-07 19:49:53 UTC,P,,,2011-03-15,,,,,CHADEMO J1772,US,,,,Public - Appeler à l'avance,,public,CALL,,CAR_DEALER,,,,,,,Free,,,,,,,,,,false,3,1,2,0,0,0,0,0,0
ELEC,Kiefer Nissan,900 NW 4th St,,Corvallis,OR,97330,,541-753-1694,E,,Public - Call ahead,Dealership business hours,,,,,,1,,,Non-Networked,,GPS,44.572608,-123.258425,2020-06-09,39830,2021-03-11 23:22:17 UTC,P,,,2011-11-10,,,,,J1772,US,,,,Public - Appeler à l'avance,,public,CALL,,CAR_DEALER,,,,,,,Free,,,,,,,,,,false,1,0,1,0,0,0,0,0,0
ELEC,Lithia Nissan of Eugene,2060 Martin Luther King,,Eugene,OR,97401,,541-686-2211,E,,Public - Call ahead,Dealership business hours,,,,,,1,,,Non-Networked,,GPS,44.05902085037804,-123.08139746322934,2020-06-09,39831,2021-03-11 23:22:17 UTC,P,,,2011-03-15,,,,,J1772,US,,,,Public - Appeler à l'avance,,public,CALL,,CAR_DEALER,,,,,,,Free,,,,,,,,,,false,1,0,1,0,0,0,0,0,0
ELEC,Dick Hannah Nissan,19505 SE McLoughlin Blvd,,Gladstone,OR,97027,,503-655-6519,E,,Public - Call ahead,Dealership business hours,,,,,,1,,,Non-Networked,,200-9,45.378967,-122.603899,2020-06-09,39832,2021-03-11 23:22:17 UTC,P,,,2011-03-15,,,,,J1772,US,,,,Public - Appeler à l'avance,,public,CALL,,CAR_DEALER,,,,,,,Free,,,,,,,,,,false,1,0,1,0,0,0,0,0,0
ELEC,Chuck Colvin Nissan,1925 N Highway 99W,,McMinnville,OR,97128,,503-472-6124,E,,Public - Call ahead,Dealership business hours,,,,,,1,,,Non-Networked,,200-9,45.227394,-123.180863,2020-06-09,39836,2021-03-11 23:22:17 UTC,P,,,2011-03-15,,,,,J1772,US,,,,Public - Appeler à l'avance,,public,CALL,,CAR_DEALER,,,,,,,Free,,,,,,,,,,false,1,0,1,0,0,0,0,0,0
ELEC,Lithia Nissan,4560 Grumman Dr,,Medford,OR,97504,,541-930-3025,E,,Public - Call ahead,Dealership business hours,,,,,,1,,,Non-Networked,,200-9,42.379969,-122.858192,2020-06-09,39837,2021-03-11 23:22:17 UTC,P,,,2011-03-15,,,,,J1772,US,,,,Public - Appeler à l'avance,,public,CALL,,CAR_DEALER,,,,,,,Free,,,,,,,,,,false,1,0,1,0,0,0,0,0,0
ELEC,Rustom Nissan - Portland,1212 NE 122nd Ave,,Portland,OR,97230,,503-251-3349,E,,Public - Call ahead,Dealership business hours,,,,,,1,,,Non-Networked,,200-9,45.531759,-122.537403,2020-06-09,39838,2021-03-11 23:22:17 UTC,P,,,2011-03-15,,,,,J1772,US,,,,Public - Appeler à l'avance,,public,CALL,,CAR_DEALER,,,,,,,Free,,,,,,,,,,false,1,0,1,0,0,0,0,0,0
ELEC,Nissan of Salem,2755 Mission St SE,,Salem,OR,97302,,503-581-3849,E,,Public - Call ahead,Dealership business hours,,,,,,1,1,,Non-Networked,,200-9,44.921582,-123.006236,2022-03-07,39839,2022-03-07 19:49:53 UTC,P,,,2011-03-15,,,,,CHADEMO J1772 J1772COMBO,US,,,,Public - Appeler à l'avance,,public,CALL,,CAR_DEALER,,,,,,,Free,,,,,,,,,,false,2,1,1,1,0,0,0,0,0
ELEC,Ray Schultens Nissan,2400 W 6th St,,The Dalles,OR,97058,,541-296-4613,E,,Public - Call ahead,Dealership business hours,,,,,,2,1,,Non-Networked,,GPS,45.613979,-121.20996,2022-02-10,39840,2022-02-10 19:42:29 UTC,P,,,2011-03-15,,,,,CHADEMO J1772 J1772COMBO,US,,,,Public - Appeler à l'avance,,public,CALL,,CAR_DEALER,,,,,,,Free,,,,,,,,,,false,3,1,2,1,0,0,0,0,0
ELEC,Tonkin Nissan,26700 SW 95th Ave,,Wilsonville,OR,97070,,503-222-2277,E,,Public - Call ahead,Dealership business hours,,,,,,2,,,Non-Networked,,200-9,45.326814,-122.770853,2020-06-09,39841,2021-03-11 23:22:17 UTC,P,,,2011-03-15,,,,,J1772,US,,,,Public - Appeler à l'avance,,public,CALL,,CAR_DEALER,,,,,,,Free,,,,,,,,,,false,2,0,2,0,0,0,0,0,0
ELEC,Southern Oregon University - Lot 8,481 Stadium St,,Ashland,OR,97520,,541-552-7275,E,,Public,24 hours daily; parking permit required; Drivers must bring their own J1772 cordset for Level 1 charging,,,,,2,3,,,Non-Networked,,200-8,42.187149,-122.689496,2022-04-06,40752,2022-04-06 14:08:04 UTC,SG,,,2011-08-01,,,,,J1772 NEMA520,US,,,,Public,,public,,,COLLEGE_CAMPUS,,,,,,,Free,,,,,,,,,,false,5,0,3,0,0,0,2,0,0
ELEC,Mentor Graphics,8005 SW Boeckman Rd,,Wilsonville,OR,97070,,,E,,Private,Employee and customer use only;  Drivers must bring their own J1772 cordset for Level 1 charging,,,,,1,1,,,Non-Networked,,200-8,45.317487,-122.759692,2022-05-05,40765,2022-05-05 20:22:04 UTC,P,,,2011-03-15,,,,,J1772 NEMA515,US,,,,Privé,,private,,,OFFICE_BLDG,,,,,,,,,,,,,,,,,,2,0,1,0,0,1,0,0,0
ELEC,Atmosera,9705 SW Sunshine Ct,,Beaverton,OR,97005,,503-646-8400,E,,Public - Call ahead,8am-5pm daily; Employee and customer use only,,,,,1,2,,,Non-Networked,,GPS,45.475743,-122.776517,2021-06-07,40775,2022-04-28 20:01:31 UTC,P,,,2012-03-31,,,,,J1772 NEMA515,US,,,,Public - Appeler à l'avance,,public,CALL,,OFFICE_BLDG,,,,,,,Free,,,,,,,,,,true,3,0,2,0,0,1,0,0,0
ELEC,Clackamas County Sheriff's Office - Brooks Building,9101 SE Sunnybrook Blvd,,Clackamas,OR,97015,,503-785-5000,E,,Public,8am-5pm daily,,,,,1,1,,,Non-Networked,,GPS,45.43039546782978,-122.5722026653595,2021-09-10,40777,2022-02-10 19:42:29 UTC,P,,,2011-03-01,,,,,J1772 NEMA515,US,,,,Public,,public,,,MUNI_GOV,,,,,,,Free,,,,,,,,,,false,2,0,1,0,0,1,0,0,0
ELEC,TC Chevrolet,2045 Highway 99 N,Located off of Exit 19 on Highway 99 on the north end of Ashland. Charger located outside of service bay.,Ashland,OR,97520,,541-201-8697,E,,Public - Call ahead,Dealership business hours,,,,,,1,,,Non-Networked,,GPS,42.219548,-122.740005,2022-06-14,41085,2022-06-14 16:24:51 UTC,P,,,2011-09-15,,,,,J1772,US,,,,Public - Appeler à l'avance,,public,CALL,,CAR_DEALER,,,,,,,Free,,,,,,,,,,true,1,0,1,0,0,0,0,0,0
ELEC,HIGHLANDCHEVRON HIGHLAND DUAL 1,14470 SW Allen Blvd,,Beaverton,OR,97005,,888-758-4389,E,,Public,24 hours daily,,,,,,2,,,ChargePoint Network,http://www.chargepoint.com/,GPS,45.475962,-122.825561,2022-11-10,41758,2022-11-10 00:52:25 UTC,,,,2011-10-15,,,,,J1772,US,,,,Public,,public,,,,,,,,,,,,,,,,,,,,,2,0,2,0,0,0,0,0,0
ELEC,Carr Nissan,3855 SW Cedar Hills Blvd,,Beaverton,OR,97005,,503-643-8676,E,,Private,,,,,,,1,,,Non-Networked,,200-9,45.491783,-122.81107,2020-06-09,44225,2021-03-11 23:22:17 UTC,P,,,2011-03-15,,,,,J1772,US,,,,Privé,,private,,,CAR_DEALER,,,,,,,,,,,,,,,,,,1,0,1,0,0,0,0,0,0
ELEC,Kiefer Nissan,900 NW 4th St,,Corvallis,OR,97330,,541-753-1694,E,,Private,,,,,,,1,,,Non-Networked,,GPS,44.572608,-123.258425,2020-06-09,44228,2021-03-11 23:22:17 UTC,P,,,2011-11-10,,,,,J1772,US,,,,Privé,,private,,,CAR_DEALER,,,,,,,,,,,,,,,,,,1,0,1,0,0,0,0,0,0
ELEC,Lithia Nissan of Eugene,2060 Martin Luther King,,Eugene,OR,97401,,541-686-2211,E,,Private,,,,,,,1,,,Non-Networked,,GPS,44.05902085037804,-123.08139746322934,2020-06-09,44230,2021-03-11 23:22:17 UTC,P,,,2011-03-15,,,,,J1772,US,,,,Privé,,private,,,CAR_DEALER,,,,,,,,,,,,,,,,,,1,0,1,0,0,0,0,0,0
ELEC,Dick Hannah Nissan,19505 SE McLoughlin Blvd,,Gladstone,OR,97027,,503-655-6519,E,,Private,,,,,,,1,,,Non-Networked,,200-9,45.378967,-122.603899,2020-06-09,44233,2021-03-11 23:22:17 UTC,P,,,2011-03-15,,,,,J1772,US,,,,Privé,,private,,,CAR_DEALER,,,,,,,,,,,,,,,,,,1,0,1,0,0,0,0,0,0
ELEC,Chuck Colvin Nissan,1925 N Highway 99W,,McMinnville,OR,97128,,503-472-6124,E,,Private,,,,,,,1,,,Non-Networked,,200-9,45.227394,-123.180863,2020-06-09,44241,2021-03-11 23:22:17 UTC,P,,,2011-03-15,,,,,J1772,US,,,,Privé,,private,,,CAR_DEALER,,,,,,,,,,,,,,,,,,1,0,1,0,0,0,0,0,0
ELEC,Lithia Nissan,4560 Grumman Dr,,Medford,OR,97504,,541-930-3025,E,,Private,,,,,,,1,,,Non-Networked,,200-9,42.379969,-122.858192,2020-06-09,44243,2021-03-11 23:22:17 UTC,P,,,2011-03-15,,,,,J1772,US,,,,Privé,,private,,,CAR_DEALER,,,,,,,,,,,,,,,,,,1,0,1,0,0,0,0,0,0
ELEC,Rustom Nissan - Portland,1212 NE 122nd Ave,,Portland,OR,97230,,503-251-3349,E,,Private,,,,,,,1,,,Non-Networked,,200-9,45.531759,-122.537403,2020-06-09,44247,2021-03-11 23:22:17 UTC,P,,,2011-03-15,,,,,J1772,US,,,,Privé,,private,,,CAR_DEALER,,,,,,,,,,,,,,,,,,1,0,1,0,0,0,0,0,0
ELEC,Nissan of Salem,2755 Mission St SE,,Salem,OR,97302,,503-581-3849,E,,Private,,,,,,,1,,,Non-Networked,,200-9,44.921582,-123.006236,2022-03-07,44251,2022-03-07 19:49:53 UTC,P,,,2011-03-15,,,,,J1772,US,,,,Privé,,private,,,CAR_DEALER,,,,,,,,,,,,,,,,,,1,0,1,0,0,0,0,0,0
ELEC,Tonkin Nissan,26700 SW 95th Ave,,Wilsonville,OR,97070,,503-222-2277,E,,Private,,,,,,,3,,,Non-Networked,,200-9,45.326814,-122.770853,2020-06-09,44255,2021-03-11 23:22:17 UTC,P,,,2011-03-15,,,,,J1772,US,,,,Privé,,private,,,CAR_DEALER,,,,,,,,,,,,,,,,,,3,0,3,0,0,0,0,0,0
ELEC,West Hills Collision Center,8300 SW Barbur Blvd,,Portland,OR,97219,,503-245-9030,E,,Public,24 hours daily,,,,,1,1,,,Non-Networked,,200-9,45.464636,-122.698892,2022-04-06,47064,2022-04-27 13:57:52 UTC,P,,,2009-10-15,,,,,J1772,US,,,,Public,,public,,,CAR_DEALER,,,,,,,Free but payment system is going to be installed,,,,,,,,,,false,2,0,2,0,0,0,0,0,0
ELEC,Fox Tower Parking Lot,805 SW Broadway,,Portland,OR,97205,,855-885-9571,E,,Public,,,,,,,2,,,OpConnect,http://www.opconnect.com/,GPS,45.518289,-122.680882,2022-11-10,50714,2022-11-10 01:59:04 UTC,,,,2012-12-26,,,,,J1772,US,,,,Public,,public,,,,,,,,,,,,,,,,,,,,,2,0,2,0,0,0,0,0,0
ELEC,Hilltop Collision Center,275 Beavercreek Rd,,Oregon City,OR,97045,,503-722-5885,E,,Public,24 hours daily,,,,,,1,,,Non-Networked,,200-9,45.333825,-122.596795,2021-06-07,51699,2022-02-10 19:42:29 UTC,P,,,2013-03-01,,,,,J1772,US,,,,Public,,public,,,CAR_DEALER,,,,,,,Free,,,,,,,,,,false,1,0,1,0,0,0,0,0,0
ELEC,Deschutes National Forest Supervisor’s Office,63095 Deschutes Market Rd,,Bend,OR,97701,,,E,,Private,USNF Employees only,,,,,,3,,,Non-Networked,,GPS,44.091791,-121.261635,2021-04-08,52473,2022-02-10 19:42:29 UTC,FG,4,U.S. Department of Agriculture,2013-06-30,,,,,J1772,US,,,,Privé,,private,,USDA,NATL_PARK,,,,,,,,,,,,,,,,,,3,0,3,0,0,0,0,0,0
ELEC,Forest Service - Umpqua National Forest,2010 Opportunity Ln,,Glide,OR,97443,,,E,,Private,USDA fleet use only,,,,,,,,,,,200-9,43.236194,-122.940719,2021-02-22,52474,2021-08-04 00:01:52 UTC,FG,4,U.S. Department of Agriculture,2013-06-30,,,,,,US,,,,Privé,,private,,USDA,NATL_PARK,,,,,,,,,,,,,,,,,,,,,,,,,,
ELEC,TOFURKY COMPANY TOFURKY HQ,602 Anchor Way,,Hood River,OR,97031,,888-758-4389,T,2022-09-09,TEMPORARILY UNAVAILABLE (Public),24 hours daily; Drivers must bring their own J1772 cordset for Level 1 charging,,,,,1,1,,,ChargePoint Network,http://www.chargepoint.com/,GPS,45.713918,-121.516681,2022-11-10,53039,2022-11-10 00:40:59 UTC,,,,2013-09-15,,,,,J1772 NEMA515,US,,,,TEMPORAIREMENT SUSPENDU (Public),,public,,,,,,,,,,,,,,,,,,,,,2,0,1,0,0,1,0,0,0
ELEC,Ocean Beaches Glassblowing & Gallery,11175 NW Pacific Coast Hwy,,Seal Rock,OR,97376,,541-563-8632,E,,Public,10am-6pm daily,,,,,,1,,,Non-Networked,,200-9,44.504993,-124.079315,2021-06-07,53694,2022-02-10 19:42:29 UTC,P,,,2013-11-20,,,,,J1772,US,,,,Public,,public,,,PARKING_LOT,,,,,,,Free,,,,,,,,,,false,1,0,1,0,0,0,0,0,0
ELEC,FORD_BLDG FORD CHARGER #1,245 S 2nd St,,Coos Bay,OR,97420,,888-758-4389,E,,Public,24 hours daily,,,,,,1,,,ChargePoint Network,http://www.chargepoint.com/,GPS,43.366504,-124.214993,2022-11-10,58336,2022-11-10 00:41:37 UTC,,,,2014-01-20,,,,,J1772,US,,,,Public,,public,,,,,,,,,,,,,,,,,,,,,1,0,1,0,0,0,0,0,0
ELEC,US BANCORP 5TH AVE GARAGE1,111 SW 5th Ave,,Portland,OR,97204,,888-758-4389,E,,Public,24 hours daily,,,,,,2,,,ChargePoint Network,http://www.chargepoint.com/,GPS,45.522185,-122.675939,2022-11-10,60919,2022-11-10 00:41:43 UTC,,,,2014-03-28,,,,,J1772,US,,,,Public,,public,,,,,,,,,,,,,,,,,,,,,2,0,2,0,0,0,0,0,0
ELEC,US BANCORP 4TH AVE GARAGE1,125 SW 4th Ave,,Portland,OR,97204,,888-758-4389,T,2022-09-09,TEMPORARILY UNAVAILABLE (Public),24 hours daily,,,,,,2,,,ChargePoint Network,http://www.chargepoint.com/,GPS,45.522198,-122.674722,2022-11-10,60943,2022-11-10 00:41:43 UTC,,,,2014-03-29,,,,,J1772,US,,,,TEMPORAIREMENT SUSPENDU (Public),,public,,,,,,,,,,,,,,,,,,,,,2,0,2,0,0,0,0,0,0
ELEC,TC Chevrolet,2045 Highway 99 N,Located off of Exit 19 on Highway 99 on the north end of Ashland. Charger located outside of service bay.,Ashland,OR,97520,,541-201-8697,E,,Private,Dealership business hours; for service use only,,,,,,2,,,Non-Networked,,GPS,42.219548,-122.740005,2022-06-14,61446,2022-06-14 16:24:51 UTC,P,,,2021-06-03,,,,,J1772,US,,,,Privé,,private,,,CAR_DEALER,,,,,,,,,,,,,,,,,,2,0,2,0,0,0,0,0,0
ELEC,BEND BMW STATION 01,1040 SW Division St,,Bend,OR,97702,,888-758-4389,E,,Public,24 hours daily,,,,,,2,,,ChargePoint Network,http://www.chargepoint.com/,GPS,44.039941,-121.305312,2022-11-10,62810,2022-11-10 00:42:11 UTC,,,,2014-08-07,,,,,J1772,US,,,,Public,,public,,,,,,,,,,,,,,,,,,,,,2,0,2,0,0,0,0,0,0
ELEC,Courtyard Marriott - Tigard Oregon,15686 SW Sequoia Parkway,,Tigard,OR,97224,,855-885-9571,E,,Public,,,,,,,1,2,,OpConnect,http://www.opconnect.com/,GPS,45.407373,-122.746448,2022-11-10,62982,2022-11-10 01:59:08 UTC,,,,2014-07-15,,,,,CHADEMO J1772 J1772COMBO,US,,,,Public,,public,,,,,,,,,,,,,,,,,,,,,3,1,1,1,0,0,0,0,0
ELEC,Lincoln Center - Gustav's Restaurant,10300 SW Greenburg Road,,Tigard,OR,97223,,855-885-9571,E,,Public,,,,,,,1,2,,OpConnect,http://www.opconnect.com/,GPS,45.44507,-122.77554,2022-11-10,62983,2022-11-10 01:59:08 UTC,,,,2014-07-01,,,,,CHADEMO J1772 J1772COMBO,US,,,,Public,,public,,,,,,,,,,,,,,,,,,,,,3,1,1,1,0,0,0,0,0
ELEC,Arlington Oregon City Hall,1310 Locust Ave.,,Arlington,OR,97812,,855-885-9571,E,,Public,,,,,,,1,2,,OpConnect,http://www.opconnect.com/,GPS,45.7176,-120.20343,2022-11-10,62984,2022-11-10 01:59:09 UTC,,,,2014-07-01,,,,,CHADEMO J1772 J1772COMBO,US,,,,Public,,public,,,,,,,,,,,,,,,,,,,SOLAR,,3,1,1,1,0,0,0,0,0
ELEC,Roth's South Salem Oregon,3045 Commercial Street SE,,Salem,OR,97302,,855-885-9571,E,,Public,,,,,,,1,2,,OpConnect,http://www.opconnect.com/,GPS,44.910615,-123.046231,2022-11-10,62985,2022-11-10 01:59:09 UTC,,,,2014-07-01,,,,,CHADEMO J1772 J1772COMBO,US,,,,Public,,public,,,,,,,,,,,,,,,,,,,,,3,1,1,1,0,0,0,0,0
ELEC,Suburban Ford,37000 Highway 26,,Sandy,OR,97055,,503-668-5511,E,,Public,Dealership business hours,,,,,,2,,,Non-Networked,,200-9,45.400895,-122.281716,2021-06-07,63646,2022-02-10 19:42:29 UTC,P,,,2014-08-01,,,,,J1772,US,,,,Public,,public,,,CAR_DEALER,,,,,,,Free,,,,,,,,,,false,2,0,2,0,0,0,0,0,0
ELEC,UOP CHARGE LIBRARY 2,N Mocks Landing Rd,,Portland,OR,97203,,888-758-4389,E,,Public,24 hours daily,,,,,,2,,,ChargePoint Network,http://www.chargepoint.com/,GPS,45.573016,-122.726659,2022-11-10,64106,2022-11-10 00:41:14 UTC,,,,2014-11-11,,,,,J1772,US,,,,Public,,public,,,,,,,,,,,,,,,,,,,,,2,0,2,0,0,0,0,0,0
ELEC,Banks - Jim's Thriftway,660 Main Street,,Banks,OR,97106,,888-833-2148,E,,Public,24 hours daily,,,,,,1,,,Webasto,https://www.evsolutions.com/ev-network,GPS,45.61007,-123.11286,2022-11-10,65854,2022-11-10 01:19:53 UTC,,,,2012-10-04,,,,,J1772,US,,,,Public,,public,,,,,,,,,,Level 2: $4 per session or $19.99 for monthly plan,,,,,,,,,,,1,0,1,0,0,0,0,0,0
ELEC,Central Point - Fairground Chevron,1510 East Pine St,,Central Point,OR,97497,,888-833-2148,E,,Public,24 hours daily,,,,,,1,1,,Webasto,https://www.evsolutions.com/ev-network,200-8,42.37837,-122.90072,2022-11-10,65855,2022-11-10 01:19:53 UTC,,,,2012-03-10,,,,,CHADEMO J1772,US,,,,Public,,public,,,,,,,,,,"Level 2: $4 per session or $19.99 for monthly plan, DC Fast: $7.50 per session or $19.99 for monthly plan",,,,,,,,,,,2,1,1,0,0,0,0,0,0
ELEC,Roseburg - Wagon Wheel Restaurant,227 NW Garden Valley RD,,Roseburg,OR,97470,,888-833-2148,E,,Public,24 hours daily,,,,,,1,1,,Webasto,https://www.evsolutions.com/ev-network,200-8,43.22653,-123.3558,2022-11-10,65856,2022-11-10 01:19:53 UTC,,,,2012-03-10,,,,,CHADEMO J1772,US,,,,Public,,public,,,,,,,,,,"Level 2: $4 per session or $19.99 for monthly plan, DC Fast: $7.50 per session or $19.99 for monthly plan",,,,,,,,,,,2,1,1,0,0,0,0,0,0
ELEC,Ashland - Shell,2373 Ashland Street,,Ashland,OR,97520,,888-833-2148,E,,Public,24 hours daily,,,,,,1,1,,Webasto,https://www.evsolutions.com/ev-network,200-8,42.18548,-122.66801,2022-11-10,65857,2022-11-10 01:19:53 UTC,,,,2012-03-10,,,,,CHADEMO J1772,US,,,,Public,,public,,,,,,,,,,"Level 2: $4 per session or $19.99 for monthly plan, DC Fast: $7.50 per session or $19.99 for monthly plan",,,,,,,,,,,2,1,1,0,0,0,0,0,0
ELEC,Wolf Creek - Wolf Creek Inn,100 Front Street,,Wolf Creek,OR,97497,,888-833-2148,E,,Public,24 hours daily,,,,,,1,1,,Webasto,https://www.evsolutions.com/ev-network,200-8,42.69678,-123.39592,2022-11-10,65858,2022-11-10 01:19:53 UTC,,,,2012-03-10,,,,,CHADEMO J1772,US,,,,Public,,public,,,,,,,,,,"DC Fast: $7.50 per session or $19.99 for monthly plan, Level 2: $4 per session or $19.99 for monthly plan",,,,,,,,,,,2,1,1,0,0,0,0,0,0
ELEC,Springfield - Gateway Marketplace,840 Beltline Road,,Springfield,OR,97477,,888-833-2148,E,,Public,24 hours daily,,,,,,1,1,,Webasto,https://www.evsolutions.com/ev-network,200-8,44.08435,-123.03951,2022-11-10,65863,2022-11-10 01:19:53 UTC,,,,2012-04-25,,,,,CHADEMO J1772,US,,,,Public,,public,,,,,,,,,,"DC Fast: $7.50 per session or $19.99 for monthly plan, Level 2: $4 per session or $19.99 for monthly plan",,,,,,,,,,,2,1,1,0,0,0,0,0,0
ELEC,Newport - City of Newport Public Parking Lot,925 Southwest Hurbert Street,,Newport,OR,97365,,888-833-2148,E,,Public,24 hours daily,,,,,,1,1,,Webasto,https://www.evsolutions.com/ev-network,200-8,44.63244,-124.05535,2022-11-10,65867,2022-11-10 01:19:53 UTC,,,,2012-10-03,,,,,CHADEMO J1772,US,,,,Public,,public,,,,,,,,,,"DC Fast: $7.50 per session or $19.99 for monthly plan, Level 2: $4 per session or $19.99 for monthly plan",,,,,,,,,,,2,1,1,0,0,0,0,0,0
ELEC,Oakland - Motel 6,621 John Long Road,,Oakland,OR,97462,,888-833-2148,E,,Public,24 hours daily,,,,,,1,1,,Webasto,https://www.evsolutions.com/ev-network,200-8,43.53704,-123.29011,2022-11-10,65871,2022-11-10 01:19:53 UTC,,,,2012-03-10,,,,,CHADEMO J1772,US,,,,Public,,public,,,,,,,,,,"Level 2: $4 per session or $19.99 for monthly plan, DC Fast: $7.50 per session or $19.99 for monthly plan",,,,,,,,,,,2,1,1,0,0,0,0,0,0
ELEC,Canyonville - 7 Feathers Truck and Travel Center,130 Creekside Rd,,Canyonville,OR,97417,,888-833-2148,E,,Public,24 hours daily,,,,,,1,1,,Webasto,https://www.evsolutions.com/ev-network,200-8,42.94087,-123.2896,2022-11-10,65872,2022-11-10 01:19:53 UTC,,,,2012-01-31,,,,,CHADEMO J1772,US,,,,Public,,public,,,,,,,,,,"Level 2: $4 per session or $19.99 for monthly plan, DC Fast: $7.50 per session or $19.99 for monthly plan",,,,,,,,,,,2,1,1,0,0,0,0,0,0
ELEC,NE MLK Boulevard - Portland OR,3640 Northeast Martin Luther King Junior Boulevard,,Portland,OR,97212,,855-885-9571,E,,Public,,,,,,,2,,,OpConnect,http://www.opconnect.com/,GPS,45.54913,-122.66145,2022-11-10,65927,2022-11-10 01:59:09 UTC,,,,2015-01-01,,,,,J1772,US,,,,Public,,public,,,,,,,,,,,,,,,,,,,SOLAR,,2,0,2,0,0,0,0,0,0
ELEC,Cafe Yumm! - Argyle Square,8689 SW Robert Burns Dr,Close to the I-5 exit for North Wilsonville and Elligson Road,Wilsonville,OR,97070,,503-638-9866,E,,Public,11am-9pm daily; free for restaurant patrons,,,,,,2,,,Non-Networked,,GPS,45.334986,-122.766691,2021-05-06,65944,2022-02-10 19:42:29 UTC,P,,,2014-09-01,,,,,J1772,US,,,,Public,,public,,,RESTAURANT,,,,,,,Free,,,,,,,,,,false,2,0,2,0,0,0,0,0,0
ELEC,OSU LPSC,2900 SW Campus Way,,Corvallis,OR,97331,,888-758-4389,E,,Public,24 hours daily,,,,,,2,,,ChargePoint Network,http://www.chargepoint.com/,GPS,44.566295,-123.283836,2022-11-10,66525,2022-11-10 00:56:35 UTC,,,,2015-03-28,,,,,J1772,US,,,,Public,,public,,,,,,,,,,,,,,,,,,,,,2,0,2,0,0,0,0,0,0
ELEC,WV EV STATION 1 WV EV STATION 1,12705 SE River Rd,,Milwaukie,OR,97222,,888-758-4389,E,,Public,24 hours daily,,,,,,2,,,ChargePoint Network,http://www.chargepoint.com/,GPS,45.430256,-122.645106,2022-11-10,66600,2022-11-10 00:44:04 UTC,,,,2015-04-03,,,,,J1772,US,,,,Public,,public,,,,,,,,,,,,,,,,,,,,,2,0,2,0,0,0,0,0,0
ELEC,RIVERPLACE RIVERPLACE APT,295 Deann Drive,,Independence,OR,97351,,888-758-4389,E,,Public,24 hours daily,,,,,,2,,,ChargePoint Network,http://www.chargepoint.com/,GPS,44.865232,-123.183309,2022-11-10,67164,2022-11-10 00:44:01 UTC,,,,2015-05-20,,,,,J1772,US,,,,Public,,public,,,,,,,,,,,,,,,,,,,,,2,0,2,0,0,0,0,0,0
ELEC,Laurel Ridge Winery,13301 NE Kuelene Rd,,Carlton,OR,97111,,503-852-7050,E,,Public,11am-5pm daily,,,,,,1,,,Non-Networked,,200-9,45.313977,-123.100942,2021-06-07,69732,2022-02-10 19:42:29 UTC,P,,,2015-09-01,,,,,J1772,US,,,,Public,,public,,,BREWERY_DISTILLERY_WINERY,,,,,,,Free,,,,,,,,,SOLAR,false,1,0,1,0,0,0,0,0,0
ELEC,OSU FAIRBANKS SOUTH,220 SW 26th St,,Corvallis,OR,97331,,888-758-4389,T,2022-09-09,TEMPORARILY UNAVAILABLE (Public),24 hours daily,,,,,,1,,,ChargePoint Network,http://www.chargepoint.com/,GPS,44.564876,-123.280561,2022-11-10,71288,2022-11-10 00:56:27 UTC,,,,2015-11-24,,,,,J1772,US,,,,TEMPORAIREMENT SUSPENDU (Public),,public,,,,,,,,,,,,,,,,,,,,,1,0,1,0,0,0,0,0,0
ELEC,Tri-Met Oregon Park Ave Park N Ride,2750 Southeast Park Ave.,,Portland,OR,97222,,855-885-9571,E,,Public,,,,,,,7,,,OpConnect,http://www.opconnect.com/,GPS,45.429692,-122.635603,2022-11-10,71432,2022-11-10 01:59:12 UTC,,,,2019-04-22,,,,,J1772,US,,,,Public,,public,,,,,,,,,,,,,,,,,,,,,7,0,7,0,0,0,0,0,0
ELEC,FRED MEYER DC S. MEDFORD,1307 Center Dr,,Medford,OR,97501,,888-758-4389,E,,Public,24 hours daily,,,,,,,1,,ChargePoint Network,http://www.chargepoint.com/,GPS,42.313893,-122.855354,2022-11-10,71851,2022-11-10 00:44:08 UTC,,,,2015-12-17,,,,,J1772COMBO,US,,,,Public,,public,,,,,,,,,,,,,,,,,,,,,1,0,0,1,0,0,0,0,0
ELEC,FRED MEYER OFF NETWORK1,1101 Grants Pass Pkwy,,Grants Pass,OR,97526,,888-758-4389,E,,Public,24 hours daily,,,,,,,1,,ChargePoint Network,http://www.chargepoint.com/,GPS,42.43512,-123.306507,2022-11-10,71852,2022-11-10 00:44:19 UTC,,,,2015-12-17,,,,,J1772COMBO,US,,,,Public,,public,,,,,,,,,,,,,,,,,,,,,1,0,0,1,0,0,0,0,0
ELEC,FRED MEYER DC ROSEBURG,929 NW Garden Valley Blvd,,Roseburg,OR,97471,,888-758-4389,E,,Public,24 hours daily,,,,,,,1,,ChargePoint Network,http://www.chargepoint.com/,GPS,43.228342,-123.368717,2022-11-10,71917,2022-11-10 00:44:11 UTC,,,,2015-12-18,,,,,J1772COMBO,US,,,,Public,,public,,,,,,,,,,,,,,,,,,,,,1,0,0,1,0,0,0,0,0
ELEC,LLOYD CENTER DC LLOYD CENTER,2252 Lloyd Center,,Portland,OR,97232,,888-758-4389,T,2022-09-09,TEMPORARILY UNAVAILABLE (Public),24 hours daily,,,,,,,1,,ChargePoint Network,http://www.chargepoint.com/,GPS,45.531974,-122.652822,2022-11-10,72279,2022-11-10 00:45:22 UTC,,,,2015-12-31,,,,,CHADEMO J1772COMBO,US,,,,TEMPORAIREMENT SUSPENDU (Public),,public,,,,,,,,,,,,,,,,,,,,,1,1,0,1,0,0,0,0,0
ELEC,FRED MEYER DC ALBANY,2500 Santiam Hwy SE,,Albany,OR,97322,,888-758-4389,E,,Public,24 hours daily,,,,,,,1,,ChargePoint Network,http://www.chargepoint.com/,GPS,44.631287,-123.076296,2022-11-10,72280,2022-11-10 00:44:19 UTC,,,,2015-12-31,,,,,J1772COMBO,US,,,,Public,,public,,,,,,,,,,,,,,,,,,,,,1,0,0,1,0,0,0,0,0
ELEC,HIGHLANDCHEVRON WOODBURN EV 1-2,993 Lawson Ave,,Woodburn,OR,97071,,888-758-4389,E,,Public,24 hours daily,,,,,,2,,,ChargePoint Network,http://www.chargepoint.com/,GPS,45.150881,-122.878368,2022-11-10,73276,2022-11-10 00:45:30 UTC,,,,2016-02-04,,,,,J1772,US,,,,Public,,public,,,,,,,,,,,,,,,,,,,,,2,0,2,0,0,0,0,0,0
ELEC,Halsey - Pioneer Villa Truck Plaza,33180 Highway 228,,Halsey,OR,97348,,888-833-2148,E,,Public,24 hours daily,,,,,,1,1,,Webasto,https://www.evsolutions.com/ev-network,200-8,44.385,-123.05629,2022-11-10,73406,2022-11-10 01:19:53 UTC,,,,2016-02-09,,,,,CHADEMO J1772,US,,,,Public,,public,,,,,,,,,,"DC Fast: $7.50 per session or $19.99 for monthly plan, Level 2: $4 per session or $19.99 for monthly plan",,,,,,,,,,,2,1,1,0,0,0,0,0,0
ELEC,Cottage Grove - Vintage Inn Restaurant,1570 Gateway Blvd,,Cottage Grove,OR,97424,,888-833-2148,E,,Public,24 hours daily,,,,,,1,1,,Webasto,https://www.evsolutions.com/ev-network,200-8,43.8045,-123.04554,2022-11-10,73407,2022-11-10 01:19:53 UTC,,,,2016-02-09,,,,,CHADEMO J1772,US,,,,Public,,public,,,,,,,,,,"DC Fast: $7.50 per session or $19.99 for monthly plan, Level 2: $4 per session or $19.99 for monthly plan",,,,,,,,,,,2,1,1,0,0,0,0,0,0
ELEC,Grants Pass - Grants Pass Chamber of Commerce,1995 NW Vine Street,,Grants Pass,OR,97528,,888-833-2148,E,,Public,24 hours daily,,,,,,1,1,,Webasto,https://www.evsolutions.com/ev-network,200-8,42.46181,-123.32293,2022-11-10,73408,2022-11-10 01:19:53 UTC,,,,2016-02-09,,,,,CHADEMO J1772,US,,,,Public,,public,,,,,,,,,,"DC Fast: $7.50 per session or $19.99 for monthly plan, Level 2: $4 per session or $19.99 for monthly plan",,,,,,,,,,,2,1,1,0,0,0,0,0,0
ELEC,McKenzie Bridge - Blue Sky Market,91808 Mill Creek Road,,McKenzie Bridge,OR,97413,,888-833-2148,E,,Public,24 hours daily,,,,,,1,1,,Webasto,https://www.evsolutions.com/ev-network,200-8,44.17375,-122.22071,2022-11-10,73409,2022-11-10 01:19:53 UTC,,,,2016-02-09,,,,,CHADEMO J1772,US,,,,Public,,public,,,,,,,,,,"Level 2: $4 per session or $19.99 for monthly plan, DC Fast: $7.50 per session or $19.99 for monthly plan",,,,,,,,,,,2,1,1,0,0,0,0,0,0
ELEC,Sisters - Sisters Mainline Station,1001 West Railway Ave,,Sisters,OR,97759,,888-833-2148,E,,Public,24 hours daily,,,,,,1,1,,Webasto,https://www.evsolutions.com/ev-network,200-8,44.29821,-121.56202,2022-11-10,73410,2022-11-10 01:19:53 UTC,,,,2016-02-09,,,,,CHADEMO J1772,US,,,,Public,,public,,,,,,,,,,"Level 2: $4 per session or $19.99 for monthly plan, DC Fast: $7.50 per session or $19.99 for monthly plan",,,,,,,,,,,2,1,1,0,0,0,0,0,0
ELEC,Hood River - City of Hood River Public Parking Lot,607 Columbia Street,,Hood River,OR,97031,,888-833-2148,E,,Public,24 hours daily,,,,,,1,1,,Webasto,https://www.evsolutions.com/ev-network,200-8,45.71015,-121.51655,2022-11-10,73411,2022-11-10 01:19:53 UTC,,,,2016-02-09,,,,,CHADEMO J1772,US,,,,Public,,public,,,,,,,,,,"Level 2: $4 per session or $19.99 for monthly plan, DC Fast: $7.50 per session or $19.99 for monthly plan",,,,,,,,,,,2,1,1,0,0,0,0,0,0
ELEC,Detroit - Mountain High Grocery,245 N Detroit Ave,,Detroit,OR,97342,,888-833-2148,E,,Public,24 hours daily,,,,,,1,1,,Webasto,https://www.evsolutions.com/ev-network,200-8,44.73718,-122.15195,2022-11-10,73414,2022-11-10 01:19:53 UTC,,,,2016-02-09,,,,,CHADEMO J1772,US,,,,Public,,public,,,,,,,,,,"DC Fast: $7.50 per session or $19.99 for monthly plan, Level 2: $4 per session or $19.99 for monthly plan",,,,,,,,,,,2,1,1,0,0,0,0,0,0
ELEC,Astoria - Sunset Empire Transit District,900 Marine Drive,,Astoria,OR,97103,,888-833-2148,E,,Public,24 hours daily,,,,,,1,1,,Webasto,https://www.evsolutions.com/ev-network,200-8,46.19017,-123.83331,2022-11-10,73416,2022-11-10 01:19:53 UTC,,,,2016-02-09,,,,,CHADEMO J1772,US,,,,Public,,public,,,,,,,,,,"Level 2: $4 per session or $19.99 for monthly plan, DC Fast: $7.50 per session or $19.99 for monthly plan",,,,,,,,,,,2,1,1,0,0,0,0,0,0
ELEC,Newberg - Chevron,3745 East Portland Road,,Newberg,OR,97132,,888-833-2148,E,,Public,24 hours daily,,,,,,1,1,,Webasto,https://www.evsolutions.com/ev-network,200-8,45.30868,-122.94178,2022-11-10,73417,2022-11-10 01:19:53 UTC,,,,2016-02-09,,,,,CHADEMO J1772,US,,,,Public,,public,,,,,,,,,,"DC Fast: $7.50 per session or $19.99 for monthly plan, Level 2: $4 per session or $19.99 for monthly plan",,,,,,,,,,,2,1,1,0,0,0,0,0,0
ELEC,Banks - Jim's Thriftway,660 Main Street Suite A,,Banks,OR,97106,,888-833-2148,E,,Public,24 hours daily,,,,,,,1,,Webasto,https://www.evsolutions.com/ev-network,GPS,45.61007,-123.11286,2022-11-10,73418,2022-11-10 01:19:53 UTC,,,,2016-02-09,,,,,CHADEMO,US,,,,Public,,public,,,,,,,,,,DC Fast: $7.50 per session or $19.99 for monthly plan,,,,,,,,,,,1,1,0,0,0,0,0,0,0
ELEC,Florence - Three Rivers Casino,5647 Highway 126,,Florence,OR,97439,,888-833-2148,E,,Public,24 hours daily,,,,,,1,1,,Webasto,https://www.evsolutions.com/ev-network,200-8,43.97657,-124.08581,2022-11-10,73419,2022-11-10 01:19:53 UTC,,,,2016-02-09,,,,,CHADEMO J1772,US,,,,Public,,public,,,,,,,,,,"DC Fast: $7.50 per session or $19.99 for monthly plan, Level 2: $4 per session or $19.99 for monthly plan",,,,,,,,,,,2,1,1,0,0,0,0,0,0
ELEC,Scappoose - Fred Meyer,51501 Columbia River Highway,,Scappoose,OR,97056,,888-833-2148,E,,Public,24 hours daily,,,,,,1,1,,Webasto,https://www.evsolutions.com/ev-network,200-8,45.74154,-122.87681,2022-11-10,73420,2022-11-10 01:19:53 UTC,,,,2016-02-09,,,,,CHADEMO J1772,US,,,,Public,,public,,,,,,,,,,"DC Fast: $7.50 per session or $19.99 for monthly plan, Level 2: $4 per session or $19.99 for monthly plan",,,,,,,,,,,2,1,1,0,0,0,0,0,0
ELEC,McMinnville - Oregon Mutual Insurance,410 NE Baker ST,,McMinnville,OR,97128,,888-833-2148,E,,Public,24 hours daily,,,,,,1,1,,Webasto,https://www.evsolutions.com/ev-network,200-8,45.21111,-123.19748,2022-11-10,73421,2022-11-10 01:19:53 UTC,,,,2016-02-09,,,,,CHADEMO J1772,US,,,,Public,,public,,,,,,,,,,"DC Fast: $7.50 per session or $19.99 for monthly plan, Level 2: $4 per session or $19.99 for monthly plan",,,,,,,,,,,2,1,1,0,0,0,0,0,0
ELEC,Mill City - Mountain Edge Café,320 NW Santiam Blvd,,Mill City,OR,97360,,888-833-2148,E,,Public,24 hours daily,,,,,,1,1,,Webasto,https://www.evsolutions.com/ev-network,200-8,44.75669,-122.47985,2022-11-10,73422,2022-11-10 01:19:53 UTC,,,,2016-02-09,,,,,CHADEMO J1772,US,,,,Public,,public,,,,,,,,,,"Level 2: $4 per session or $19.99 for monthly plan, DC Fast: $7.50 per session or $19.99 for monthly plan",,,,,,,,,,,2,1,1,0,0,0,0,0,0
ELEC,Welches - Barlow Trail Roadhouse,69580 East Highway 26,,Welches,OR,97067,,888-833-2148,E,,Public,24 hours daily,,,,,,1,1,,Webasto,https://www.evsolutions.com/ev-network,200-9,45.3446,-121.9492,2022-11-10,73423,2022-11-10 01:19:53 UTC,,,,2016-02-09,,,,,CHADEMO J1772,US,,,,Public,,public,,,,,,,,,,"Level 2: $4 per session or $19.99 for monthly plan, DC Fast: $7.50 per session or $19.99 for monthly plan",,,,,,,,,,,2,1,1,0,0,0,0,0,0
ELEC,Lincoln City - Lincoln City Cultural Center,540 U.S. 101,,Lincoln City,OR,97367,,888-833-2148,E,,Public,24 hours daily,,,,,,1,1,,Webasto,https://www.evsolutions.com/ev-network,200-8,44.97069,-124.01446,2022-11-10,73424,2022-11-10 01:19:53 UTC,,,,2016-02-09,,,,,CHADEMO J1772,US,,,,Public,,public,,,,,,,,,,"Level 2: $4 per session or $19.99 for monthly plan, DC Fast: $7.50 per session or $19.99 for monthly plan",,,,,,,,,,,2,1,1,0,0,0,0,0,0
ELEC,City of Cascade Locks Public Parking Lot,95 N.E. Wa Na Pa,,Cascade Locks,OR,97014,,888-833-2148,E,,Public,24 hours daily,,,,,,1,1,,Webasto,https://www.evsolutions.com/ev-network,GPS,45.67071,-121.88823,2022-11-10,73425,2022-11-10 01:19:53 UTC,,,,2016-02-09,,,,,CHADEMO J1772,US,,,,Public,,public,,,,,,,,,,"Level 2: $4 per session or $19.99 for monthly plan, DC Fast: $7.50 per session or $19.99 for monthly plan",,,,,,,,,,,2,1,1,0,0,0,0,0,0
ELEC,Yachats - Yachats City Hall,441 Highway 101 N,,Yachats,OR,97498,,888-833-2148,E,,Public,24 hours daily,,,,,,1,1,,Webasto,https://www.evsolutions.com/ev-network,200-8,44.3127,-124.10542,2022-11-10,73426,2022-11-10 01:19:53 UTC,,,,2016-02-09,,,,,CHADEMO J1772,US,,,,Public,,public,,,,,,,,,,"DC Fast: $7.50 per session or $19.99 for monthly plan, Level 2: $4 per session or $19.99 for monthly plan",,,,,,,,,,,2,1,1,0,0,0,0,0,0
ELEC,Elkton - Brandborg Winery,345 First St,,Elkton,OR,97436,,888-833-2148,E,,Public,24 hours daily,,,,,,1,1,,Webasto,https://www.evsolutions.com/ev-network,200-8,43.63635,-123.56587,2022-11-10,73427,2022-11-10 01:19:53 UTC,,,,2016-02-09,,,,,CHADEMO J1772,US,,,,Public,,public,,,,,,,,,,"DC Fast: $7.50 per session or $19.99 for monthly plan, Level 2: $4 per session or $19.99 for monthly plan",,,,,,,,,,,2,1,1,0,0,0,0,0,0
ELEC,Warm Springs - Indian Head Casino,3236 US 26,,Warm Springs,OR,97761,,888-833-2148,E,,Public,24 hours daily,,,,,,1,1,,Webasto,https://www.evsolutions.com/ev-network,GPS,44.76316,-121.25056,2022-11-10,73428,2022-11-10 01:19:53 UTC,,,,2016-02-09,,,,,CHADEMO J1772,US,,,,Public,,public,,,,,,,,,,"Level 2: $4 per session or $19.99 for monthly plan, DC Fast: $7.50 per session or $19.99 for monthly plan",,,,,,,,,,,2,1,1,0,0,0,0,0,0
ELEC,Reedsport - Recreation Station,1575 Highway 101 S,,Reedsport,OR,97467,,888-833-2148,E,,Public,24 hours daily,,,,,,1,1,,Webasto,https://www.evsolutions.com/ev-network,200-8,43.69841,-124.11183,2022-11-10,73429,2022-11-10 01:19:53 UTC,,,,2016-02-09,,,,,CHADEMO J1772,US,,,,Public,,public,,,,,,,,,,"DC Fast: $7.50 per session or $19.99 for monthly plan, Level 2: $4 per session or $19.99 for monthly plan",,,,,,,,,,,2,1,1,0,0,0,0,0,0
ELEC,Monmouth - Dairy Queen,320 Pacific Ave South,,Monmouth,OR,97361,,888-833-2148,E,,Public,24 hours daily,,,,,,1,1,,Webasto,https://www.evsolutions.com/ev-network,200-8,44.84613,-123.22951,2022-11-10,73430,2022-11-10 01:19:53 UTC,,,,2016-02-09,,,,,CHADEMO J1772,US,,,,Public,,public,,,,,,,,,,"Level 2: $4 per session or $19.99 for monthly plan, DC Fast: $7.50 per session or $19.99 for monthly plan",,,,,,,,,,,2,1,1,0,0,0,0,0,0
ELEC,Spirit Mountain Casino Service Station,26820 Salmon River Highway,,Grand Ronde,OR,97347,,888-833-2148,E,,Public,24 hours daily,,,,,,1,1,,Webasto,https://www.evsolutions.com/ev-network,200-8,45.05987,-123.57872,2022-11-10,73432,2022-11-10 01:19:53 UTC,,,,2016-02-09,,,,,CHADEMO J1772,US,,,,Public,,public,,,,,,,,,,"DC Fast: $7.50 per session or $19.99 for monthly plan, Level 2: $4 per session or $19.99 for monthly plan",,,,,,,,,,,2,1,1,0,0,0,0,0,0
ELEC,Veneta - Veneta Park n' Ride,88184 Territorial Road,,Veneta,OR,97487,,888-833-2148,E,,Public,24 hours daily,,,,,,1,1,,Webasto,https://www.evsolutions.com/ev-network,200-8,44.05111,-123.35174,2022-11-10,73434,2022-11-10 01:19:53 UTC,,,,2016-02-09,,,,,CHADEMO J1772,US,,,,Public,,public,,,,,,,,,,"Level 2: $4 per session or $19.99 for monthly plan, DC Fast: $7.50 per session or $19.99 for monthly plan",,,,,,,,,,,2,1,1,0,0,0,0,0,0
ELEC,Tillamook - Fred Meyer,2500 N Main St,,Tillamook,OR,97141,,888-833-2148,E,,Public,24 hours daily,,,,,,1,1,,Webasto,https://www.evsolutions.com/ev-network,200-8,45.47478,-123.84546,2022-11-10,73436,2022-11-10 01:19:53 UTC,,,,2016-02-09,,,,,CHADEMO J1772,US,,,,Public,,public,,,,,,,,,,"Level 2: $4 per session or $19.99 for monthly plan, DC Fast: $7.50 per session or $19.99 for monthly plan",,,,,,,,,,,2,1,1,0,0,0,0,0,0
ELEC,Cannon Beach - Cannon Beach RV Resort,340 Elk Creek Road,,Cannon Beach,OR,97110,,888-833-2148,E,,Public,24 hours daily,,,,,,1,1,,Webasto,https://www.evsolutions.com/ev-network,200-8,45.88889,-123.95537,2022-11-10,73438,2022-11-10 01:19:53 UTC,,,,2016-02-09,,,,,CHADEMO J1772,US,,,,Public,,public,,,,,,,,,,"DC Fast: $7.50 per session or $19.99 for monthly plan, Level 2: $4 per session or $19.99 for monthly plan",,,,,,,,,,,2,1,1,0,0,0,0,0,0
ELEC,Coos Bay -Fred Meyer,1020 1st St,,Coos Bay,OR,97420,,888-833-2148,E,,Public,24 hours daily,,,,,,1,1,,Webasto,https://www.evsolutions.com/ev-network,200-8,43.35721,-124.21139,2022-11-10,73439,2022-11-10 01:19:53 UTC,,,,2016-02-09,,,,,CHADEMO J1772,US,,,,Public,,public,,,,,,,,,,"Level 2: $4 per session or $19.99 for monthly plan, DC Fast: $7.50 per session or $19.99 for monthly plan",,,,,,,,,,,2,1,1,0,0,0,0,0,0
ELEC,Albany - Chevron,33157 Highway 34 SE,,Albany,OR,97322,,888-833-2148,E,,Public,24 hours daily,,,,,,1,1,,Webasto,https://www.evsolutions.com/ev-network,200-8,44.55637,-123.06623,2022-11-10,73440,2022-11-10 01:19:53 UTC,,,,2016-02-09,,,,,CHADEMO J1772,US,,,,Public,,public,,,,,,,,,,"Level 2: $4 per session or $19.99 for monthly plan, DC Fast: $7.50 per session or $19.99 for monthly plan",,,,,,,,,,,2,1,1,0,0,0,0,0,0
ELEC,Redmond - Fred Meyer,944 SW Veterans Way,,Redmond,OR,97756,,888-833-2148,E,,Public,24 hours daily,,,,,,,1,,Webasto,https://www.evsolutions.com/ev-network,200-9,44.26766,-121.17681,2022-11-10,73441,2022-11-10 01:19:53 UTC,,,,2016-02-09,,,,,CHADEMO,US,,,,Public,,public,,,,,,,,,,DC Fast: $7.50 per session or $19.99 for monthly plan,,,,,,,,,,,1,1,0,0,0,0,0,0,0
ELEC,Westport - Berry Patch,49289 US 30,,WESTPORT,OR,97016,,888-833-2148,E,,Public,24 hours daily,,,,,,1,1,,Webasto,https://www.evsolutions.com/ev-network,200-8,46.13052,-123.37377,2022-11-10,73442,2022-11-10 01:19:53 UTC,,,,2016-02-09,,,,,CHADEMO J1772,US,,,,Public,,public,,,,,,,,,,"Level 2: $4 per session or $19.99 for monthly plan, DC Fast: $7.50 per session or $19.99 for monthly plan",,,,,,,,,,,2,1,1,0,0,0,0,0,0
ELEC,The Dalles - Fred Meyer,1215 W 6th St,,The Dalles,OR,97058,,888-833-2148,E,,Public,24 hours daily,,,,,,1,1,,Webasto,https://www.evsolutions.com/ev-network,200-8,45.60691,-121.19955,2022-11-10,73443,2022-11-10 01:19:53 UTC,,,,2016-02-09,,,,,CHADEMO J1772,US,,,,Public,,public,,,,,,,,,,"DC Fast: $7.50 per session or $19.99 for monthly plan, Level 2: $4 per session or $19.99 for monthly plan",,,,,,,,,,,2,1,1,0,0,0,0,0,0
ELEC,Government Camp - Ski Bowl West,87000 East Highway 26,,Government Camp,OR,97028,,888-833-2148,E,,Public,24 hours daily,,,,,,1,1,,Webasto,https://www.evsolutions.com/ev-network,200-8,45.30291,-121.77641,2022-11-10,73444,2022-11-10 01:19:53 UTC,,,,2016-02-09,,,,,CHADEMO J1772,US,,,,Public,,public,,,,,,,,,,"Level 2: $4 per session or $19.99 for monthly plan, DC Fast: $7.50 per session or $19.99 for monthly plan",,,,,,,,,,,2,1,1,0,0,0,0,0,0
ELEC,Jim Sigel Automotive Center,1601 NE 7th St,,Grants Pass,OR,97526,,541-237-6052,E,,Public - Call ahead,Dealership business hours,,,,,,1,,,Non-Networked,,200-9,42.455987,-123.320245,2020-06-09,73472,2021-03-11 23:22:17 UTC,P,,,2010-11-26,,,,,J1772,US,,,,Public - Appeler à l'avance,,public,CALL,,CAR_DEALER,,,,,,,Free,,,,,,,,,,false,1,0,1,0,0,0,0,0,0
ELEC,Hyland Estates,20980 NE Niederberger Rd,,Dundee,OR,97115,,503-554-4200,E,,Public,24 hours daily,,,,,,1,,,Non-Networked,,200-9,45.268997,-123.020986,2021-06-07,73759,2022-02-10 19:42:29 UTC,P,,,2016-02-01,,,,,J1772,US,,,,Public,,public,,,BREWERY_DISTILLERY_WINERY,,,,,,,Free,,,,,,,,,,false,1,0,1,0,0,0,0,0,0
ELEC,HASSALO GARAGE VELOMOR #1,1061 NE 9th Ave,,Portland,OR,97232,,888-758-4389,E,,Public,24 hours daily,,,,,,2,,,ChargePoint Network,http://www.chargepoint.com/,GPS,45.530594,-122.656712,2022-11-10,73916,2022-11-10 00:45:12 UTC,,,,2016-03-02,,,,,J1772,US,,,,Public,,public,,,,,,,,,,,,,,,,,,,,,2,0,2,0,0,0,0,0,0
ELEC,"Madras, OR City Hall/PD",71 SE D St,,Madras,OR,97741,,855-885-9571,E,,Public,,,,,,,1,2,,OpConnect,http://www.opconnect.com/,GPS,44.630769,-121.131472,2022-11-10,74212,2022-11-10 01:59:09 UTC,,,,2016-05-15,,,,,CHADEMO J1772 J1772COMBO,US,,,,Public,,public,,,,,,,,,,,,,,,,,,,,,3,1,1,1,0,0,0,0,0
ELEC,SunPower,25300 NW Evergreen Rd,,Hillsboro,OR,97124,,,T,2022-05-26,TEMPORARILY UNAVAILABLE (Private),8am-5pm daily; Employee and guest use only,,,,,,1,1,,Non-Networked,,200-9,45.55102,-122.939917,2022-04-06,74213,2022-04-06 14:08:04 UTC,P,,,2020-08-01,,,,,CHADEMO J1772,US,,,,TEMPORAIREMENT SUSPENDU (Privé),,private,,,OFFICE_BLDG,,,,,,,Free,,,,,,,,,,,2,1,1,0,0,0,0,0,0
ELEC,ALOFT HOTEL DC FAST 01,9920 NE Cascades Pkwy,,Portland,OR,97220,,888-758-4389,E,,Public,24 hours daily,,,,,,,1,,ChargePoint Network,http://www.chargepoint.com/,GPS,45.573211,-122.561278,2022-11-10,74696,2022-11-10 00:44:07 UTC,,,,2016-04-02,,,,,J1772COMBO,US,,,,Public,,public,,,,,,,,,,,,,,,,,,,,,1,0,0,1,0,0,0,0,0
ELEC,STADIUM PARKING GARAGE,2121 W Burnside St,,Portland,OR,97210,,888-758-4389,E,,Public,24 hours daily,,,,,,2,,,ChargePoint Network,http://www.chargepoint.com/,GPS,45.523855,-122.69492,2022-11-10,74705,2022-11-10 00:46:27 UTC,,,,2016-04-05,,,,,J1772,US,,,,Public,,public,,,,,,,,,,,,,,,,,,,,,2,0,2,0,0,0,0,0,0
ELEC,SOU SOU LOT 27,1150 Ashland St,,Ashland,OR,97520,,888-758-4389,E,,Public,24 hours daily,,,,,,2,,,ChargePoint Network,http://www.chargepoint.com/,GPS,42.185539,-122.697112,2022-11-10,75376,2022-11-10 00:46:06 UTC,,,,2016-04-23,,,,,J1772,US,,,,Public,,public,,,,,,,,,,,,,,,,,,,,,2,0,2,0,0,0,0,0,0
ELEC,Madras - Dairy Queen,483 SE 5th street,,Madras,OR,97741,,888-833-2148,E,,Public,24 hours daily,,,,,,1,1,,Webasto,https://www.evsolutions.com/ev-network,200-8,44.62898,-121.12939,2022-11-10,77347,2022-11-10 01:19:53 UTC,,,,2016-08-05,,,,,CHADEMO J1772,US,,,,Public,,public,,,,,,,,,,"DC Fast: $7.50 per session or $19.99 for monthly plan, Level 2: $4 per session or $19.99 for monthly plan",,,,,,,,,,,2,1,1,0,0,0,0,0,0
ELEC,Port Orford - Seaside Plaza,1320 Oregon St,,Port Orford,OR,97465,,888-833-2148,E,,Public,24 hours daily,,,,,,1,1,,Webasto,https://www.evsolutions.com/ev-network,200-8,42.74925,-124.497,2022-11-10,77348,2022-11-10 01:19:53 UTC,,,,2016-08-05,,,,,CHADEMO J1772,US,,,,Public,,public,,,,,,,,,,"DC Fast: $7.50 per session or $19.99 for monthly plan, Level 2: $4 per session or $19.99 for monthly plan",,,,,,,,,,,2,1,1,0,0,0,0,0,0
ELEC,Woodburn - Woodburn Transit Center,2875 Newburg Hwy,,Woodburn,OR,97071,,888-833-2148,E,,Public,24 hours daily,,,,,,1,1,,Webasto,https://www.evsolutions.com/ev-network,200-8,45.15136,-122.87634,2022-11-10,77349,2022-11-10 01:19:53 UTC,,,,2016-08-05,,,,,CHADEMO J1772,US,,,,Public,,public,,,,,,,,,,"Level 2: $4 per session or $19.99 for monthly plan, DC Fast: $7.50 per session or $19.99 for monthly plan",,,,,,,,,,,2,1,1,0,0,0,0,0,0
ELEC,Brookings,325 5th st,,Brookings,OR,97415,,888-833-2148,E,,Public,24 hours daily,,,,,,1,1,,Webasto,https://www.evsolutions.com/ev-network,200-8,42.05359,-124.29001,2022-11-10,77350,2022-11-10 01:19:53 UTC,,,,2016-08-05,,,,,CHADEMO J1772,US,,,,Public,,public,,,,,,,,,,"Level 2: $4 per session or $19.99 for monthly plan, DC Fast: $7.50 per session or $19.99 for monthly plan",,,,,,,,,,,2,1,1,0,0,0,0,0,0
ELEC,COLUMBIA BASIN HEPPNER,389 N Main St,,Heppner,OR,97836,,888-758-4389,E,,Public,24 hours daily,,,,,,2,,,ChargePoint Network,http://www.chargepoint.com/,GPS,45.356558,-119.553373,2022-11-10,77444,2022-11-10 00:46:57 UTC,,,,2016-08-11,,,,,J1772,US,,,,Public,,public,,,,,,,,,,,,,,,,,,,,,2,0,2,0,0,0,0,0,0
ELEC,COLUMBIA BASIN CONDON,402 S Main St,,Condon,OR,97823,,888-758-4389,E,,Public,24 hours daily,,,,,,2,,,ChargePoint Network,http://www.chargepoint.com/,GPS,45.234126,-120.184295,2022-11-10,78232,2022-11-10 00:46:57 UTC,,,,2016-09-01,,,,,J1772,US,,,,Public,,public,,,,,,,,,,,,,,,,,,,,,2,0,2,0,0,0,0,0,0
ELEC,HASSALO GARAGE ELWOOD BLDG #1,1107 NE 9th Ave,,Portland,OR,97232,,888-758-4389,E,,Public,24 hours daily,,,,,,2,,,ChargePoint Network,http://www.chargepoint.com/,GPS,45.530904,-122.656662,2022-11-10,78953,2022-11-10 00:45:12 UTC,,,,2016-10-12,,,,,J1772,US,,,,Public,,public,,,,,,,,,,,,,,,,,,,,,2,0,2,0,0,0,0,0,0
ELEC,Edith Green - Wendell Wyatt Federal Building,1220 SW 3rd Ave,,Portland,OR,97204,,,E,,Private - Government only,Fleet vehicle only,,,,,,6,,,Non-Networked,,200-9,45.514468,-122.677047,2021-02-22,79135,2021-03-11 23:22:17 UTC,FG,21,General Services Administration,2013-07-01,,,,,J1772,US,,,,Privé - Réservé au gouvernement,,private,GOVERNMENT,GSA,FED_GOV,,,,,,,,,,,,,,,,,,6,0,6,0,0,0,0,0,0
ELEC,OSH OSH 1,Bobolink Way,,Salem,OR,97301,,888-758-4389,E,,Public,24 hours daily,,,,,,2,,,ChargePoint Network,http://www.chargepoint.com/,GPS,44.938542,-123.005982,2022-11-10,79220,2022-11-10 00:47:00 UTC,,,,2016-10-21,,,,,J1772,US,,,,Public,,public,,,,,,,,,,,,,,,,,,,,,2,0,2,0,0,0,0,0,0
ELEC,REMER INC RUBY'S GRILL,2323 S Roosevelt Dr,,Seaside,OR,97138,,888-758-4389,T,2022-09-09,TEMPORARILY UNAVAILABLE (Public),24 hours daily,,,,,,2,,,ChargePoint Network,http://www.chargepoint.com/,GPS,45.978568,-123.926604,2022-11-10,79303,2022-11-10 00:47:18 UTC,,,,2016-10-27,,,,,J1772,US,,,,TEMPORAIREMENT SUSPENDU (Public),,public,,,,,,,,,,,,,,,,,,,,,2,0,2,0,0,0,0,0,0
ELEC,EV4 DC FAST 01,2727 SE Raymond St,,Portland,OR,97202,,888-758-4389,T,2022-09-09,TEMPORARILY UNAVAILABLE (Public),24 hours daily,,,,,,,1,,ChargePoint Network,http://www.chargepoint.com/,GPS,45.487166,-122.637985,2022-11-10,80057,2022-11-10 00:42:56 UTC,,,,2016-12-03,,,,,J1772COMBO,US,,,,TEMPORAIREMENT SUSPENDU (Public),,public,,,,,,,,,,,,,,,,,,,,,1,0,0,1,0,0,0,0,0
ELEC,DAS OREGON 550 BLD VISITOR,550 Capital St NE,,Salem,OR,97301,,888-758-4389,E,,Public,24 hours daily,,,,,,2,,,ChargePoint Network,http://www.chargepoint.com/,GPS,44.941884,-123.025502,2022-11-10,81177,2022-11-10 00:47:55 UTC,,,,2017-02-01,,,,,J1772,US,,,,Public,,public,,,,,,,,,,,,,,,,,,,,,2,0,2,0,0,0,0,0,0
ELEC,LCT LCT LOT #1,825 NE Multnomah St,,Portland,OR,97232,,888-758-4389,E,,Public,24 hours daily,,,,,,2,,,ChargePoint Network,http://www.chargepoint.com/,GPS,45.532503,-122.657619,2022-11-10,81378,2022-11-10 00:48:53 UTC,,,,2017-02-11,,,,,J1772,US,,,,Public,,public,,,,,,,,,,,,,,,,,,,,,2,0,2,0,0,0,0,0,0
ELEC,Oregon Department of Energy,550 Capitol St NE,,Salem,OR,97301,,,E,,Private,For fleet use only,,,,,,1,,,Non-Networked,,200-9,44.941989,-123.025697,2022-04-06,81506,2022-04-06 14:08:04 UTC,SG,,,2016-06-15,,,,,J1772,US,,,,Privé,,private,,,STATE_GOV,,,,,,,Free,,,,,,,,,,,1,0,1,0,0,0,0,0,0
ELEC,GS INDIGO LLC STATION 2,411-417 SW 12th Ave,,Portland,OR,97205,,888-758-4389,E,,Public,24 hours daily,,,,,,2,,,ChargePoint Network,http://www.chargepoint.com/,GPS,45.522219,-122.683515,2022-11-10,82087,2022-11-10 00:49:16 UTC,,,,2017-03-28,,,,,J1772,US,,,,Public,,public,,,,,,,,,,,,,,,,,,,,,2,0,2,0,0,0,0,0,0
ELEC,SOFI LAKE OSWEG STATION 1,15000 Davis Ln,,Lake Oswego,OR,97035,,888-758-4389,E,,Public,24 hours daily,,,,,,2,,,ChargePoint Network,http://www.chargepoint.com/,GPS,45.41896,-122.715093,2022-11-10,82604,2022-11-10 00:47:37 UTC,,,,2017-05-16,,,,,J1772,US,,,,Public,,public,,,,,,,,,,,,,,,,,,,,,2,0,2,0,0,0,0,0,0
ELEC,STATION1 SOFI CEDAR MILL,11785 NW Timberview Ln,,Portland,OR,97229,,888-758-4389,E,,Public,24 hours daily,,,,,,2,,,ChargePoint Network,http://www.chargepoint.com/,GPS,45.521907,-122.799164,2022-11-10,85386,2022-11-10 00:49:54 UTC,,,,2017-06-02,,,,,J1772,US,,,,Public,,public,,,,,,,,,,,,,,,,,,,,,2,0,2,0,0,0,0,0,0
ELEC,CHARGEPOINT BW PORT 1A PORT 1B,1215 N Hayden Meadows Dr.,,Portland,OR,97217,,888-758-4389,T,2022-09-09,TEMPORARILY UNAVAILABLE (Public),24 hours daily,,,,,,2,,,ChargePoint Network,http://www.chargepoint.com/,GPS,45.59404,-122.680944,2022-11-10,85666,2022-11-10 00:48:17 UTC,,,,2017-06-24,,,,,J1772,US,,,,TEMPORAIREMENT SUSPENDU (Public),,public,,,,,,,,,,,,,,,,,,,,,2,0,2,0,0,0,0,0,0
ELEC,PARK AVENUE STATION 1,820 SW Morrison St,,Portland,OR,97205,,888-758-4389,E,,Public,24 hours daily,,,,,,2,,,ChargePoint Network,http://www.chargepoint.com/,GPS,45.519541,-122.680901,2022-11-10,86878,2022-11-10 00:50:11 UTC,,,,2017-08-23,,,,,J1772,US,,,,Public,,public,,,,,,,,,,,,,,,,,,,,,2,0,2,0,0,0,0,0,0
ELEC,PARK AVENUE STATION 3,727-789 SW Park Ave,,Portland,OR,97205,,888-758-4389,E,,Public,24 hours daily,,,,,,2,,,ChargePoint Network,http://www.chargepoint.com/,GPS,45.519453,-122.680799,2022-11-10,86879,2022-11-10 00:49:52 UTC,,,,2017-08-23,,,,,J1772,US,,,,Public,,public,,,,,,,,,,,,,,,,,,,,,2,0,2,0,0,0,0,0,0
ELEC,LINCOLN CITY LINCOLN DUAL 2,1401-1499 NE 15th St,,Lincoln City,OR,97367,,888-758-4389,E,,Public,24 hours daily,,,,,,2,,,ChargePoint Network,http://www.chargepoint.com/,GPS,44.976001,-124.011539,2022-11-10,86955,2022-11-10 00:50:39 UTC,,,,2017-08-30,,,,,J1772,US,,,,Public,,public,,,,,,,,,,,,,,,,,,,,,2,0,2,0,0,0,0,0,0
ELEC,HILLSBORO OR PUB WORKS 2,4415 Northeast 30th,,Hillsboro,OR,97124,,888-758-4389,E,,Public,24 hours daily,,,,,,2,,,ChargePoint Network,http://www.chargepoint.com/,GPS,45.551867,-122.94907,2022-11-10,87980,2022-11-10 00:49:17 UTC,,,,2017-10-11,,,,,J1772,US,,,,Public,,public,,,,,,,,,,,,,,,,,,,,,2,0,2,0,0,0,0,0,0
ELEC,HILLSBORO OR PUB WORKS 1,4415 NE 30th Ave,,Hillsboro,OR,97124,,888-758-4389,E,,Public,24 hours daily,,,,,,2,,,ChargePoint Network,http://www.chargepoint.com/,GPS,45.551864,-122.949149,2022-11-10,87981,2022-11-10 00:49:03 UTC,,,,2017-10-11,,,,,J1772,US,,,,Public,,public,,,,,,,,,,,,,,,,,,,,,2,0,2,0,0,0,0,0,0
ELEC,Oregon Department of Energy,550 Capitol St NE,,Salem,OR,97301,,,E,,Private,Employee use only; Drivers must bring their own J1772 cordset for Level 1 charging,,,,,12,,,,Non-Networked,,200-9,44.941989,-123.025697,2022-04-06,92101,2022-04-06 14:08:04 UTC,SG,,,2016-06-15,,,,,NEMA520,US,,,,Privé,,private,,,STATE_GOV,,,,,,,Free,,,,,,,,,,,12,0,0,0,0,0,12,0,0
ELEC,Southern Oregon University - Lot 1,1554 Webster St,,Ashland,OR,97520,,541-552-7275,E,,Public,6am-12am; parking permit required,,,,,,2,,,Non-Networked,,200-9,42.186396,-122.690383,2022-04-06,92125,2022-04-06 14:08:04 UTC,P,,,2018-03-07,,,,,J1772,US,,,,Public,,public,,,COLLEGE_CAMPUS,,,,,,,Free,,,,,,,,,,false,2,0,2,0,0,0,0,0,0
ELEC,Southern Oregon University - Lot 27,1150 Ashland St,,Ashland,OR,97520,,541-552-7275,E,,Public,6am-12am; parking permit required,,,,,,1,,,Non-Networked,,200-9,42.185251,-122.69845,2022-04-06,92126,2022-04-06 14:08:04 UTC,P,,,2018-01-01,,,,,J1772,US,,,,Public,,public,,,COLLEGE_CAMPUS,,,,,,,Free,,,,,,,,,,false,1,0,1,0,0,0,0,0,0
ELEC,SOU SOU LOT 1 EAST,1554 Webster St,,Ashland,OR,97520,,888-758-4389,E,,Public,24 hours daily,,,,,,2,,,ChargePoint Network,http://www.chargepoint.com/,GPS,42.18759,-122.691876,2022-11-10,92986,2022-11-10 00:50:47 UTC,,,,2018-03-07,,,,,J1772,US,,,,Public,,public,,,,,,,,,,,,,,,,,,,,,2,0,2,0,0,0,0,0,0
ELEC,Southern Oregon University - Facilities Management & Planning,351 Walker Ave,,Ashland,OR,97520,,,E,,Private,Fleet use only,,,,,,1,,,Non-Networked,,200-8,42.188483,-122.688136,2022-04-06,93767,2022-04-06 14:08:04 UTC,P,,,2013-01-01,,,,,J1772,US,,,,Privé,,private,,,COLLEGE_CAMPUS,,,,,,,Free,,,,,,,,,,,1,0,1,0,0,0,0,0,0
ELEC,CAPPELLA CHARGER,4752 Liberty Rd S,,Salem,OR,97302,,888-758-4389,E,,Public,24 hours daily,,,,,,1,,,ChargePoint Network,http://www.chargepoint.com/,GPS,44.888818,-123.059289,2022-11-10,93826,2022-11-10 00:51:52 UTC,,,,2018-03-16,,,,,J1772,US,,,,Public,,public,,,,,,,,,,,,,,,,,,,,,1,0,1,0,0,0,0,0,0
ELEC,BEND BMW STATION 02,1000 SW Division St,,Bend,OR,97702,,888-758-4389,T,2022-09-09,TEMPORARILY UNAVAILABLE (Public),24 hours daily,,,,,,1,,,ChargePoint Network,http://www.chargepoint.com/,GPS,44.039696,-121.305527,2022-11-10,94513,2022-11-10 00:51:40 UTC,,,,2018-03-27,,,,,J1772,US,,,,TEMPORAIREMENT SUSPENDU (Public),,public,,,,,,,,,,,,,,,,,,,,,1,0,1,0,0,0,0,0,0
ELEC,Santa's Hardware,87038 Christmas Valley Hwy,,Christmas Valley,OR,97641,,541-576-2999,E,,Public,"9am-6pm M-Sat, 11am-4pm Sun; Also accepts PayPal",A Cash D M V,,,,,1,,,Non-Networked,,200-9,43.237312,-120.690638,2022-04-06,94702,2022-04-06 14:08:04 UTC,P,,,2018-02-15,,,,,J1772,US,,,,Public,,public,,,HARDWARE_STORE,,,,,,,$1.99 per hour,,,,,,,,,,false,1,0,1,0,0,0,0,0,0
ELEC,Residence Inn - Hillsboro,3160 NE Brookwood Parkway,,Hillsboro,OR,97124,,866-816-7584,T,2022-09-30,TEMPORARILY UNAVAILABLE (Public),,,,,,,4,,,EV Connect,http://evconnect.com/,GPS,45.546761,-122.929595,2022-11-10,94874,2022-11-10 02:00:24 UTC,,,,2016-06-26,,,,,J1772,US,,,,TEMPORAIREMENT SUSPENDU (Public),,public,,,,,,,,,,,,,,,,,,,,,4,0,4,0,0,0,0,0,0
ELEC,Oregon Convention Center,777 NE MLK Jr. Blvd.,".
",Portland,OR,97232,,888-998-2546,E,,Public,MON: 24 hours | TUE: 24 hours | WED: 24 hours | THU: 24 hours | FRI: 24 hours | SAT: 24 hours | SUN: 24 hours,,,,,,2,,,Blink Network,http://www.blinkcharging.com/,GPS,45.526865,-122.663388,2022-10-05,95067,2022-10-05 22:55:22 UTC,,,,2012-01-01,,,,,J1772,US,,,,Public,,public,,,,,,,,,,Level 2: $0.49 per kWh,,,,,,,,,,,2,0,2,0,0,0,0,0,0
ELEC,Salem - Chemeketa Parkade,338 Commercial St NE,"Along the right wall as you enter
",Salem,OR,97301,,888-998-2546,E,,Public,MON: 24 hours | TUE: 24 hours | WED: 24 hours | THU: 24 hours | FRI: 24 hours | SAT: 24 hours | SUN: 24 hours,,,,,,4,,,Blink Network,http://www.blinkcharging.com/,GPS,44.942219,-123.038899,2022-10-05,95135,2022-10-05 22:55:37 UTC,,,,2011-08-01,,,,,J1772,US,,,,Public,,public,,,,,,,,,,Level 2: $0.49 per kWh,,,,,,,,,,,4,0,4,0,0,0,0,0,0
ELEC,Timberhill Athletic Club,2855 NW 29th St.,,Corvallis,OR,97330,,888-998-2546,E,,Public,MON: 24 hours | TUE: 24 hours | WED: 24 hours | THU: 24 hours | FRI: 24 hours | SAT: 24 hours | SUN: 24 hours,,,,,,1,,,Blink Network,http://www.blinkcharging.com/,GPS,44.595571,-123.286015,2022-10-05,95225,2022-10-05 22:55:49 UTC,,,,2012-04-01,,,,,J1772,US,,,,Public,,public,,,,,,,,,,Level 2: $0.49 per kWh,,,,,,,,,,,1,0,1,0,0,0,0,0,0
ELEC,Legacy Emanuel Hospital and Health Center,2725 North Gantenbein Avenue,"Charger is located in the 1st level of 
parking structure 3 in the corner near 
electrical room.

Charger is located in the 1st levels of 
the parking structures in the corner 
near electrical rooms.
",Portland,OR,97227,,888-998-2546,E,,Public,MON: 24 hours | TUE: 24 hours | WED: 24 hours | THU: 24 hours | FRI: 24 hours | SAT: 24 hours | SUN: 24 hours,,,,,,4,,,Blink Network,http://www.blinkcharging.com/,GPS,45.542776,-122.669212,2022-10-05,95226,2022-10-05 22:55:49 UTC,,,,2012-01-01,,,,,J1772,US,,,,Public,,public,,,,,,,,,,Level 2: $0.49 per kWh,,,,,,,,,,,4,0,4,0,0,0,0,0,0
ELEC,Salem - Liberty Parkade,199 Liberty St. SE,"Entrance to underground parking is on 
the east side of the complex on Liberty 
Street, which is a one-way street.
",Salem,OR,97301,,888-998-2546,E,,Public,MON: 24 hours | TUE: 24 hours | WED: 24 hours | THU: 24 hours | FRI: 24 hours | SAT: 24 hours | SUN: 24 hours,,,,,,2,,,Blink Network,http://www.blinkcharging.com/,GPS,44.939001,-123.039338,2022-10-05,95284,2022-10-05 22:55:55 UTC,,,,2012-11-15,,,,,J1772,US,,,,Public,,public,,,,,,,,,,Level 2: $0.49 per kWh,,,,,,,,,,,2,0,2,0,0,0,0,0,0
ELEC,Providence - Hood River Memorial Hospital,810 12th St,"Chargers are located on Ground Level in 
the Northwest corner of the parking 
structure
",Hood River,OR,97031,,888-998-2546,E,,Public,MON: 24 hours | TUE: 24 hours | WED: 24 hours | THU: 24 hours | FRI: 24 hours | SAT: 24 hours | SUN: 24 hours,,,,,,2,,,Blink Network,http://www.blinkcharging.com/,GPS,45.704583,-121.522868,2022-10-05,95357,2022-10-05 22:56:10 UTC,,,,2016-09-14,,,,,J1772,US,,,,Public,,public,,,,,,,,,,Level 2: $0.49 per kWh,,,,,,,,,,,2,0,2,0,0,0,0,0,0
ELEC,Legacy Mount Hood Medical Center,24800 SE Stark St,,Gresham,OR,97030,,888-998-2546,E,,Public,MON: 24 hours | TUE: 24 hours | WED: 24 hours | THU: 24 hours | FRI: 24 hours | SAT: 24 hours | SUN: 24 hours,,,,,,2,,,Blink Network,http://www.blinkcharging.com/,GPS,45.517162,-122.407497,2022-10-05,95415,2022-10-05 22:56:17 UTC,,,,2012-01-01,,,,,J1772,US,,,,Public,,public,,,,,,,,,,Level 2: $0.49 per kWh,,,,,,,,,,,2,0,2,0,0,0,0,0,0
ELEC,First Alternative Cooperative North,2855 NW Grant St,,Corvallis,OR,97330,,888-998-2546,E,,Public,MON: 24 hours | TUE: 24 hours | WED: 24 hours | THU: 24 hours | FRI: 24 hours | SAT: 24 hours | SUN: 24 hours,,,,,,1,,,Blink Network,http://www.blinkcharging.com/,GPS,44.579023,-123.282687,2022-10-05,95690,2022-10-05 22:56:51 UTC,,,,2014-03-11,,,,,J1772,US,,,,Public,,public,,,,,,,,,,Level 2: $0.49 per kWh,,,,,,,,,,,1,0,1,0,0,0,0,0,0
ELEC,Hawthorne Auto Clinic,4307 SE HAWTHORNE BLVD,,PORTLAND,OR,97215,,888-998-2546,T,2022-09-08,TEMPORARILY UNAVAILABLE (Private),MON: 24 hours | TUE: 24 hours | WED: 24 hours | THU: 24 hours | FRI: 24 hours | SAT: 24 hours | SUN: 24 hours,,,,,,1,,,Blink Network,http://www.blinkcharging.com/,GPS,45.512037,-122.618159,2022-10-05,95743,2022-10-05 22:57:05 UTC,,,,2012-06-25,,,,,J1772,US,,,,TEMPORAIREMENT SUSPENDU (Privé),,private,,,,,,,,,,Level 2: $0.49 per kWh,,,,,,,,,,,1,0,1,0,0,0,0,0,0
ELEC,Hotel Rose Portland,50 SW Morrison Street,"Valet
",Portland,OR,97204,,888-998-2546,E,,Public,MON: 24 hours | TUE: 24 hours | WED: 24 hours | THU: 24 hours | FRI: 24 hours | SAT: 24 hours | SUN: 24 hours,,,,,,2,,,Blink Network,http://www.blinkcharging.com/,GPS,45.517469,-122.673361,2022-10-05,95750,2022-10-05 22:57:06 UTC,,,,2016-06-21,,,,,J1772,US,,,,Public,,public,,,,,,,,,,Level 2: $0.49 per kWh,,,,,,,,,,,2,0,2,0,0,0,0,0,0
ELEC,Eastgate Business Center,33900 SE Eastgate Circle,,Corvallis,OR,97333,,888-998-2546,T,2022-09-08,TEMPORARILY UNAVAILABLE (Public),MON: 24 hours | TUE: 24 hours | WED: 24 hours | THU: 24 hours | FRI: 24 hours | SAT: 24 hours | SUN: 24 hours,,,,,,2,,,Blink Network,http://www.blinkcharging.com/,GPS,44.563768,-123.225812,2022-10-05,95757,2022-10-05 22:57:07 UTC,,,,2012-04-01,,,,,J1772,US,,,,TEMPORAIREMENT SUSPENDU (Public),,public,,,,,,,,,,Level 2: $0.49 per kWh,,,,,,,,,,,2,0,2,0,0,0,0,0,0
ELEC,Old West Salem City Hall,1320 Edgewater St. NW,,Salem,OR,97304,,888-998-2546,E,,Public,MON: 24 hours | TUE: 24 hours | WED: 24 hours | THU: 24 hours | FRI: 24 hours | SAT: 24 hours | SUN: 24 hours,,,,,,2,,,Blink Network,http://www.blinkcharging.com/,GPS,44.939611,-123.060235,2022-10-05,95805,2022-10-05 22:57:12 UTC,,,,2012-07-15,,,,,J1772,US,,,,Public,,public,,,,,,,,,,Level 2: $0.49 per kWh,,,,,,,,,,,2,0,2,0,0,0,0,0,0
ELEC,OSU - Linus Pauling Science Center,2750 SW Campus Way,,Corvallis,OR,97331,,888-998-2546,E,,Public,MON: 24 hours | TUE: 24 hours | WED: 24 hours | THU: 24 hours | FRI: 24 hours | SAT: 24 hours | SUN: 24 hours,,,,,,2,,,Blink Network,http://www.blinkcharging.com/,GPS,44.56629,-123.283795,2022-10-05,95918,2022-10-05 22:57:26 UTC,,,,2012-07-15,,,,,J1772,US,,,,Public,,public,,,,,,,,,,Level 2: $0.49 per kWh,,,,,,,,,,,2,0,2,0,0,0,0,0,0
ELEC,Tigard - Public Works,8777 SW Burnham St.,,Tigard,OR,97223,,888-998-2546,T,2022-09-08,TEMPORARILY UNAVAILABLE (Public),MON: 24 hours | TUE: 24 hours | WED: 24 hours | THU: 24 hours | FRI: 24 hours | SAT: 24 hours | SUN: 24 hours,,,,,,1,,,Blink Network,http://www.blinkcharging.com/,GPS,45.427235,-122.767239,2022-10-05,95931,2022-10-05 22:57:27 UTC,,,,2013-02-15,,,,,J1772,US,,,,TEMPORAIREMENT SUSPENDU (Public),,public,,,,,,,,,,Level 2: $0.49 per kWh,,,,,,,,,,,1,0,1,0,0,0,0,0,0
ELEC,Providence - St. Vincent Medical Center,9205 SW Barnes Rd,"Located in the main parking garage, 
level 1, section 1B, next to the vallet
",Portland,OR,97225,,888-998-2546,E,,Public,MON: 24 hours | TUE: 24 hours | WED: 24 hours | THU: 24 hours | FRI: 24 hours | SAT: 24 hours | SUN: 24 hours,,,,,,4,,,Blink Network,http://www.blinkcharging.com/,GPS,45.509742,-122.771026,2022-10-05,95938,2022-10-05 22:57:29 UTC,,,,2012-05-31,,,,,J1772,US,,,,Public,,public,,,,,,,,,,Level 2: $0.49 per kWh,,,,,,,,,,,4,0,4,0,0,0,0,0,0
ELEC,Providence - Office Park,4400 NE Halsey St,"Employees & Visitors Only - M-F 7am-7 pm
",Portland,OR,97213,,888-998-2546,E,,Public,MON: 24 hours | TUE: 24 hours | WED: 24 hours | THU: 24 hours | FRI: 24 hours | SAT: 24 hours | SUN: 24 hours,,,,,,2,,,Blink Network,http://www.blinkcharging.com/,GPS,45.5335,-122.617841,2022-10-05,95940,2022-10-05 22:57:30 UTC,,,,2012-06-06,,,,,J1772,US,,,,Public,,public,,,,,,,,,,Level 2: $0.49 per kWh,,,,,,,,,,,2,0,2,0,0,0,0,0,0
ELEC,Providence - Milwaukie Hospital,10150 SE 32nd Ave,,Milwaukie,OR,97222,,888-998-2546,E,,Public,MON: 24 hours | TUE: 24 hours | WED: 24 hours | THU: 24 hours | FRI: 24 hours | SAT: 24 hours | SUN: 24 hours,,,,,,2,,,Blink Network,http://www.blinkcharging.com/,GPS,45.448879,-122.627307,2022-10-05,95942,2022-10-05 22:57:30 UTC,,,,2012-04-25,,,,,J1772,US,,,,Public,,public,,,,,,,,,,Level 2: $0.49 per kWh,,,,,,,,,,,2,0,2,0,0,0,0,0,0
ELEC,Providence - Willamette Falls Medical Center,1500 Division St.,"Chargers in parking lot in front of  
Providence Willamette Falls Medical 
Plaza II entrance.
",Oregon City,OR,97045,,888-998-2546,E,,Public,MON: 24 hours | TUE: 24 hours | WED: 24 hours | THU: 24 hours | FRI: 24 hours | SAT: 24 hours | SUN: 24 hours,,,,,,4,,,Blink Network,http://www.blinkcharging.com/,GPS,45.356723,-122.586643,2022-10-05,95943,2022-10-05 22:57:30 UTC,,,,2012-06-19,,,,,J1772,US,,,,Public,,public,,,,,,,,,,Level 2: $0.49 per kWh,,,,,,,,,,,4,0,4,0,0,0,0,0,0
ELEC,Providence Medical Group - Tanasbourne,18530 NW Cornell Road,,Hillsboro,OR,97124,,888-998-2546,T,2022-09-08,TEMPORARILY UNAVAILABLE (Public),MON: 24 hours | TUE: 24 hours | WED: 24 hours | THU: 24 hours | FRI: 24 hours | SAT: 24 hours | SUN: 24 hours,,,,,,2,,,Blink Network,http://www.blinkcharging.com/,GPS,45.533717,-122.868141,2022-10-05,95944,2022-10-05 22:57:30 UTC,,,,2012-05-31,,,,,J1772,US,,,,TEMPORAIREMENT SUSPENDU (Public),,public,,,,,,,,,,Level 2: $0.49 per kWh,,,,,,,,,,,2,0,2,0,0,0,0,0,0
ELEC,Providence - Bridgeport Health Center,18040 SW Lower Boones Ferry Road,,Tigard,OR,97224,,888-998-2546,E,,Public,MON: 24 hours | TUE: 24 hours | WED: 24 hours | THU: 24 hours | FRI: 24 hours | SAT: 24 hours | SUN: 24 hours,,,,,,2,,,Blink Network,http://www.blinkcharging.com/,GPS,45.390767,-122.75109,2022-10-05,95946,2022-10-05 22:57:30 UTC,,,,2012-06-06,,,,,J1772,US,,,,Public,,public,,,,,,,,,,Level 2: $0.49 per kWh,,,,,,,,,,,2,0,2,0,0,0,0,0,0
ELEC,Providence - Portland Medical Center - Glisan Parking Garage West,4805 NE Glisan St,"Entrance ramp off of NE 49th Ave.
",Portland,OR,97213,,888-998-2546,E,,Public,MON: 24 hours | TUE: 24 hours | WED: 24 hours | THU: 24 hours | FRI: 24 hours | SAT: 24 hours | SUN: 24 hours,,,,,,4,,,Blink Network,http://www.blinkcharging.com/,GPS,45.527803,-122.612077,2022-10-05,95947,2022-10-05 22:57:30 UTC,,,,2012-05-01,,,,,J1772,US,,,,Public,,public,,,,,,,,,,Level 2: $0.49 per kWh,,,,,,,,,,,4,0,4,0,0,0,0,0,0
ELEC,Pringle Schoolhouse,4985 Battle Creek Rd. SE,,Salem,OR,97302,,888-998-2546,E,,Public,MON: 24 hours | TUE: 24 hours | WED: 24 hours | THU: 24 hours | FRI: 24 hours | SAT: 24 hours | SUN: 24 hours,,,,,,2,,,Blink Network,http://www.blinkcharging.com/,GPS,44.883384,-123.012592,2022-10-05,96083,2022-10-05 22:57:49 UTC,,,,2016-11-03,,,,,J1772,US,,,,Public,,public,,,,,,,,,,Level 2: $0.49 per kWh,,,,,,,,,,,2,0,2,0,0,0,0,0,0
ELEC,THPRD - HMT Recreation Complex,15707 SW Walker Road,,Beaverton,OR,97006,,888-998-2546,E,,Public,MON: 24 hours | TUE: 24 hours | WED: 24 hours | THU: 24 hours | FRI: 24 hours | SAT: 24 hours | SUN: 24 hours,,,,,,1,,,Blink Network,http://www.blinkcharging.com/,GPS,45.520532,-122.839118,2022-10-05,96150,2022-10-05 22:58:04 UTC,,,,2011-07-15,,,,,J1772,US,,,,Public,,public,,,,,,,,,,Level 2: $0.49 per kWh,,,,,,,,,,,1,0,1,0,0,0,0,0,0
ELEC,Vernier Software & Technology,13979 SW Millikan Way,,Beaverton,OR,97005,,888-998-2546,E,,Public,MON: 24 hours | TUE: 24 hours | WED: 24 hours | THU: 24 hours | FRI: 24 hours | SAT: 24 hours | SUN: 24 hours,,,,,,2,,,Blink Network,http://www.blinkcharging.com/,GPS,45.493455,-122.819869,2022-10-05,96209,2022-10-05 22:58:14 UTC,,,,2014-04-16,,,,,J1772,US,,,,Public,,public,,,,,,,,,,Level 2: $0.49 per kWh,,,,,,,,,,,2,0,2,0,0,0,0,0,0
ELEC,City of Falls City,299 Mill St.,"Chargers under repair.
",Falls City,OR,97344,,888-998-2546,T,2022-09-08,TEMPORARILY UNAVAILABLE (Public),MON: 24 hours | TUE: 24 hours | WED: 24 hours | THU: 24 hours | FRI: 24 hours | SAT: 24 hours | SUN: 24 hours,,,,,,1,,,Blink Network,http://www.blinkcharging.com/,GPS,44.865414,-123.434127,2022-10-05,96295,2022-10-05 22:58:28 UTC,,,,2013-02-15,,,,,J1772,US,,,,TEMPORAIREMENT SUSPENDU (Public),,public,,,,,,,,,,Level 2: $0.49 per kWh,,,,,,,,,,,1,0,1,0,0,0,0,0,0
ELEC,City of Carlton - City Hall,191 East Main Street,"The unit #014 is temporally out of 
service.
",Carlton,OR,97111,,888-998-2546,T,2022-09-08,TEMPORARILY UNAVAILABLE (Public),MON: 24 hours | TUE: 24 hours | WED: 24 hours | THU: 24 hours | FRI: 24 hours | SAT: 24 hours | SUN: 24 hours,,,,,,2,,,Blink Network,http://www.blinkcharging.com/,GPS,45.29437,-123.175959,2022-10-05,96393,2022-10-05 22:58:41 UTC,,,,2012-04-01,,,,,J1772,US,,,,TEMPORAIREMENT SUSPENDU (Public),,public,,,,,,,,,,Level 2: $0.49 per kWh,,,,,,,,,,,2,0,2,0,0,0,0,0,0
ELEC,OSU - 15th & Jefferson Way Lot,1220 SW Jefferson Way,,Corvallis,OR,97331,,888-998-2546,E,,Public,MON: 24 hours | TUE: 24 hours | WED: 24 hours | THU: 24 hours | FRI: 24 hours | SAT: 24 hours | SUN: 24 hours,,,,,,2,,,Blink Network,http://www.blinkcharging.com/,GPS,44.564954,-123.272122,2022-10-05,96490,2022-10-05 22:58:50 UTC,,,,2012-09-30,,,,,J1772,US,,,,Public,,public,,,,,,,,,,Level 2: $0.49 per kWh,,,,,,,,,,,2,0,2,0,0,0,0,0,0
ELEC,Danielson's Hilltop Mall,1500 Molalla Ave,".
",Oregon City,OR,97045,,888-998-2546,E,,Public,MON: 24 hours | TUE: 24 hours | WED: 24 hours | THU: 24 hours | FRI: 24 hours | SAT: 24 hours | SUN: 24 hours,,,,,,2,,,Blink Network,http://www.blinkcharging.com/,GPS,45.335211,-122.593116,2022-10-05,96542,2022-10-05 22:58:57 UTC,,,,2011-08-01,,,,,J1772,US,,,,Public,,public,,,,,,,,,,Level 2: $0.49 per kWh,,,,,,,,,,,2,0,2,0,0,0,0,0,0
ELEC,Smart Park - 4th & Yamhill,330 SW Yamhill Street,"Enter on 4th Ave between Taylor and 
Yamhill Located on Level 8.
",Portland,OR,97204,,888-998-2546,E,,Public,MON: 24 hours | TUE: 24 hours | WED: 24 hours | THU: 24 hours | FRI: 24 hours | SAT: 24 hours | SUN: 24 hours,,,,,,3,,,Blink Network,http://www.blinkcharging.com/,GPS,45.517312,-122.676815,2022-10-05,96564,2022-10-05 22:59:03 UTC,,,,2012-08-17,,,,,J1772,US,,,,Public,,public,,,,,,,,,,Level 2: $0.49 per kWh,,,,,,,,,,,3,0,3,0,0,0,0,0,0
ELEC,Smart Park - SW 10th & Yamhill,730 SW 10th Avenue,"EVSEs located on 2nd floor of parking 
garage.  Parking garage entrance 
located on SW 10th Ave.
",Portland,OR,97205,,888-998-2546,E,,Public,MON: 24 hours | TUE: 24 hours | WED: 24 hours | THU: 24 hours | FRI: 24 hours | SAT: 24 hours | SUN: 24 hours,,,,,,7,,,Blink Network,http://www.blinkcharging.com/,GPS,45.519651,-122.682137,2022-10-05,96565,2022-10-05 22:59:03 UTC,,,,2012-08-17,,,,,J1772,US,,,,Public,,public,,,,,,,,,,Level 2: $0.49 per kWh,,,,,,,,,,,7,0,7,0,0,0,0,0,0
ELEC,EMBASSY CENTER NEW STATION,9020 SW Washington Square Rd,,Tigard,OR,97223,,888-758-4389,T,2022-09-09,TEMPORARILY UNAVAILABLE (Public),24 hours daily,,,,,,2,,,ChargePoint Network,http://www.chargepoint.com/,GPS,45.454592,-122.781679,2022-11-10,96950,2022-11-10 00:52:19 UTC,,,,2018-05-08,,,,,J1772,US,,,,TEMPORAIREMENT SUSPENDU (Public),,public,,,,,,,,,,,,,,,,,,,,,2,0,2,0,0,0,0,0,0
ELEC,South Clackamas Transportation District,807 East Main Street,,Molalla,OR,97038,,888-998-2546,E,,Public,MON: 24 hours | TUE: 24 hours | WED: 24 hours | THU: 24 hours | FRI: 24 hours | SAT: 24 hours | SUN: 24 hours,,,,,,1,,,Blink Network,http://www.blinkcharging.com/,GPS,45.145345,-122.566024,2022-10-05,97028,2022-10-05 22:57:08 UTC,,,,2018-05-12,,,,,J1772,US,,,,Public,,public,,,,,,,,,,Level 2: $0.49 per kWh,,,,,,,,,,,1,0,1,0,0,0,0,0,0
ELEC,CHARGE@RTH STATION 01,300 SE 122nd Ave,,Portland,OR,97233,,888-758-4389,T,2022-09-09,TEMPORARILY UNAVAILABLE (Public),24 hours daily,,,,,,2,,,ChargePoint Network,http://www.chargepoint.com/,GPS,45.520359,-122.537051,2022-11-10,97036,2022-11-10 00:51:57 UTC,,,,2018-05-12,,,,,J1772,US,,,,TEMPORAIREMENT SUSPENDU (Public),,public,,,,,,,,,,,,,,,,,,,,,2,0,2,0,0,0,0,0,0
ELEC,Crescent Vue,132 Crescent St,,Tillamook,OR,97134,,,E,,Private,For renter use only,,,,,,1,,,Non-Networked,,200-9,45.449914,-123.961337,2021-06-07,98411,2022-05-16 15:23:09 UTC,P,,,2018-04-23,,,,,J1772,US,,,,Privé,,private,,,HOTEL,,,,,,,,,,,,,,,,,,1,0,1,0,0,0,0,0,0
ELEC,Green Acres Market,7777 S Highway 97,,Redmond,OR,97756,,541-678-7581,E,,Public,24 hours daily,A Cash Checks D Debit M V,,,,,1,,,Non-Networked,,200-9,44.204363,-121.227364,2022-04-06,98546,2022-04-06 14:08:04 UTC,P,,,2018-05-01,,,,,J1772,US,,,,Public,,public,,,GROCERY,,,,,,,Free,,,,,,,,,,false,1,0,1,0,0,0,0,0,0
ELEC,2WTC P1,56 SW Taylor St,,Portland,OR,97204,,855-900-7584,E,,Public,24 hours daily,,,,,,8,,,SHELL_RECHARGE,https://shellrecharge.com/en-us/solutions,200-9,45.516061,-122.673899,2022-11-10,99177,2022-11-10 01:20:50 UTC,,,,2015-08-01,,,,,J1772,US,,,,Public,,public,,,,,,,,,,,,,,,,,,,,,8,0,8,0,0,0,0,0,0
ELEC,Tillamook,"Ivy Avenue & 2nd Street,",,Tillamook,OR,97141,,855-900-7584,E,,Public,24 hours daily,,,,,,1,,,SHELL_RECHARGE,https://shellrecharge.com/en-us/solutions,GPS,45.457061,-123.844996,2022-11-10,99778,2022-11-10 01:20:49 UTC,,,,2018-07-17,,,,,J1772,US,,,,Public,,public,,,,,,,,,,,,,,,,,,,,,1,0,1,0,0,0,0,0,0
ELEC,Best Western Sunridge Inn - Tesla Supercharger,1 Sunridge Lane,,Baker City,OR,97814,,877-798-3752,E,,Public,24 hours daily; for Tesla use only,,,,,,,8,,Tesla,https://www.tesla.com/supercharger,200-9,44.782882,-117.812306,2021-10-11,102370,2021-11-04 18:37:47 UTC,P,,,2015-06-01,,,,,TESLA,US,,,,Public,,public,,,,,,,,,,$0.28 per kWh; $0.26 per minute above 60 kW and $0.13 per minute at or below 60 kW,,,,,,,,,,,8,0,0,0,0,0,0,8,0
ELEC,Fred Meyer Bend - Tesla Supercharger,61535 S Highway 97,,Bend,OR,97702,,877-798-3752,E,,Public,24 hours daily; for Tesla use only,,,,,,,8,,Tesla,https://www.tesla.com/supercharger,200-8,44.03563,-121.308473,2021-10-11,102371,2021-11-04 18:37:47 UTC,P,,,2016-07-15,,,,,TESLA,US,,,,Public,,public,,,,,,,,,,$0.28 per kWh; $0.26 per minute above 60 kW and $0.13 per minute at or below 60 kW,,,,,,,,,,,8,0,0,0,0,0,0,8,0
ELEC,Detroit Lake - Tesla Supercharger,210 D Street,,Detroit,OR,97342,,877-798-3752,E,,Public,24 hours daily; for Tesla use only,,,,,,,6,,Tesla,https://www.tesla.com/supercharger,200-9,44.73704,-122.151999,2021-10-11,102372,2021-11-04 18:37:47 UTC,P,,,2013-12-15,,,,,TESLA,US,,,,Public,,public,,,,,,,,,,$0.28 per kWh; $0.26 per minute above 60 kW and $0.13 per minute at or below 60 kW,,,,,,,,,,,6,0,0,0,0,0,0,6,0
ELEC,Black Bear Diner Grants Pass - Tesla Supercharger,1900 NW 6th St.,,Grants Pass,OR,97526,,877-798-3752,E,,Public,24 hours daily; for Tesla use only,,,,,,,8,,Tesla,https://www.tesla.com/supercharger,200-9,42.460931,-123.324124,2021-10-11,102373,2021-11-04 18:37:47 UTC,P,,,2013-10-31,,,,,TESLA,US,,,,Public,,public,,,,,,,,,,$0.28 per kWh; $0.26 per minute above 60 kW and $0.13 per minute at or below 60 kW,,,,,,,,,,,8,0,0,0,0,0,0,8,0
ELEC,Fred Meyer Klamath Falls - Tesla Supercharger,2655 Shasta Way,,Klamath Falls,OR,97603,,877-798-3752,E,,Public,24 hours daily; for Tesla use only,,,,,,,8,,Tesla,https://www.tesla.com/supercharger,200-9,42.216915,-121.75635,2021-10-11,102374,2021-11-04 18:37:47 UTC,P,,,2017-09-01,,,,,TESLA,US,,,,Public,,public,,,,,,,,,,$0.28 per kWh; $0.26 per minute above 60 kW and $0.13 per minute at or below 60 kW,,,,,,,,,,,8,0,0,0,0,0,0,8,0
ELEC,Lincoln City Outlets - Tesla Supercharger,1500 SE East Devils Lake Rd.,,Lincoln City,OR,97367,,877-798-3752,E,,Public,24 hours daily; for Tesla use only,,,,,,,8,,Tesla,https://www.tesla.com/supercharger,200-8,44.957751,-124.010966,2021-10-11,102375,2021-11-04 18:37:47 UTC,P,,,2016-09-01,,,,,TESLA,US,,,,Public,,public,,,,,,,,,,$0.28 per kWh; $0.26 per minute above 60 kW and $0.13 per minute at or below 60 kW,,,,,,,,,,,8,0,0,0,0,0,0,8,0
ELEC,Wildhorse Resort and Casino - Tesla Supercharger,46510 Wildhorse Blvd.,,Pendleton,OR,97801,,877-798-3752,E,,Public,24 hours daily; for Tesla use only,,,,,,,8,,Tesla,https://www.tesla.com/supercharger,200-9,45.64655,-118.68198,2021-10-11,102377,2021-11-04 18:37:47 UTC,P,,,2015-06-01,,,,,TESLA,US,,,,Public,,public,,,,,,,,,,$0.28 per kWh; $0.26 per minute above 60 kW and $0.13 per minute at or below 60 kW,,,,,,,,,,,8,0,0,0,0,0,0,8,0
ELEC,Fred Meyer - Tesla Supercharger,16625 SE 362nd Dr.,,Sandy,OR,97055,,877-798-3752,E,,Public,24 hours daily; for Tesla use only,,,,,,,8,,Tesla,https://www.tesla.com/supercharger,200-8,45.402786,-122.294371,2021-10-11,102379,2021-11-04 18:37:47 UTC,P,,,2015-10-01,,,,,TESLA,US,,,,Public,,public,,,,,,,,,,$0.28 per kWh; $0.26 per minute above 60 kW and $0.13 per minute at or below 60 kW,,,,,,,,,,,8,0,0,0,0,0,0,8,0
ELEC,Seaside Factory Outlet Center - Tesla Supercharger,1111 N Roosevelt Dr.,,Seaside,OR,97138,,877-798-3752,E,,Public,24 hours daily; for Tesla use only,,,,,,,8,,Tesla,https://www.tesla.com/supercharger,200-9,46.00101,-123.91683,2021-10-11,102380,2021-11-04 18:37:47 UTC,P,,,2016-07-15,,,,,TESLA,US,,,,Public,,public,,,,,,,,,,$0.28 per kWh; $0.26 per minute above 60 kW and $0.13 per minute at or below 60 kW,,,,,,,,,,,8,0,0,0,0,0,0,8,0
ELEC,Holiday Inn Eugene - Springfield - Tesla Supercharger,919 Kruse Way,,Springfield,OR,97477,,877-798-3752,E,,Public,24 hours daily; for Tesla use only,,,,,,,14,,Tesla,https://www.tesla.com/supercharger,200-8,44.082607,-123.037458,2021-10-11,102382,2021-11-04 18:37:47 UTC,P,,,2013-10-31,,,,,TESLA,US,,,,Public,,public,,,,,,,,,,$0.28 per kWh; $0.26 per minute above 60 kW and $0.13 per minute at or below 60 kW,,,,,,,,,,,14,0,0,0,0,0,0,14,0
ELEC,Elmer's Restaurant - Tesla Supercharger,255 N Arney Rd,,Woodburn,OR,97071,,877-798-3752,E,,Public,24 hours daily; for Tesla use only,,,,,,,8,,Tesla,https://www.tesla.com/supercharger,200-9,45.15313,-122.881254,2021-10-11,102384,2021-11-04 18:37:47 UTC,P,,,2013-08-29,,,,,TESLA,US,,,,Public,,public,,,,,,,,,,$0.28 per kWh; $0.26 per minute above 60 kW and $0.13 per minute at or below 60 kW,,,,,,,,,,,8,0,0,0,0,0,0,8,0
ELEC,City of Ashland - Public Parking Lot,165 Lithia Way,Located at Lithia Way and Pioneer St,Ashland,OR,97520,,541-488-5300,E,,Public,24 hours daily,,,,,,10,,,Non-Networked,,GPS,42.197279,-122.712786,2020-11-09,102953,2022-04-27 21:52:39 UTC,LG,,,2018-07-01,,,,,J1772,US,,,,Public,,public,,,PARKING_LOT,,,,,,,Free,,,,,,,,,,false,10,0,10,0,0,0,0,0,0
ELEC,City of Ashland - Public Parking Garage,175 Hargadine St,Located on Second St near Hargadine St,Ashland,OR,97520,,541-488-5300,E,,Public,Garage business hours; pay lot,,,,,,2,,,Non-Networked,,GPS,42.195809,-122.713621,2020-05-06,102954,2022-04-27 21:53:33 UTC,LG,,,2018-05-01,,,,,J1772,US,,,,Public,,public,,,PAY_GARAGE,,,,,,,Free,,,,,,,,,,false,2,0,2,0,0,0,0,0,0
ELEC,Harney County - Chamber of Commerce,484 N Broadway Ave,,Burns,OR,97720,,541-573-2636,E,,Public,24 hours daily; Tesla adapter available,,,,,,1,,,Non-Networked,,GPS,43.589715,-119.055007,2021-06-07,103921,2022-02-10 19:42:29 UTC,P,,,2015-04-01,,,,,J1772,US,,,,Public,,public,,,MUNI_GOV,,,,,,,Free,,,,,,,,,,false,1,0,1,0,0,0,0,0,0
ELEC,Green Springs Inn,11470 Highway 66,,Ashland,OR,97520,,541-482-0614,E,,Public,24 hours daily,,,,,,1,,,Non-Networked,,GPS,42.122821,-122.464271,2021-06-07,103922,2022-02-10 19:42:29 UTC,P,,,2013-01-01,,,,,J1772,US,,,,Public,,public,,,HOTEL,,,,,,,Free,,,,,,,,,,false,1,0,1,0,0,0,0,0,0
ELEC,Franny Beck Wines,108 5th St,,Amity,OR,97101,,503-583-2296,E,,Public,24 hours daily; for guest use only,,,,,,2,,,Non-Networked,,GPS,45.115791,-123.206977,2020-09-03,103947,2022-04-28 20:01:31 UTC,P,,,2018-10-01,,,,,J1772 TESLA,US,,,,Public,,public,,,BREWERY_DISTILLERY_WINERY,,,,,,,Free,,,,,,,,,,true,2,0,1,0,0,0,0,1,0
ELEC,Public Coast Brewing,380 N Antler St,,Cannon Beach,OR,97110,,503-436-0285,E,,Public,24 hours daily; for Tesla use only,,,,,,1,,,Non-Networked,,GPS,45.900889,-123.958827,2021-01-14,103959,2022-04-28 20:01:31 UTC,P,,,2018-10-01,,,,,TESLA,US,,,,Public,,public,,,PARKING_LOT,,,,,,,Free,,,,,,,,,,true,1,0,0,0,0,0,0,1,0
ELEC,Goss Chevrolet,1415 Adams Ave,,La Grande,OR,97850,,541-963-4161,E,,Public - Call ahead,Dealership business hours,,,,,,1,,,Non-Networked,,GPS,45.326761,-118.091312,2020-09-03,103974,2021-03-11 23:22:17 UTC,P,,,2018-10-01,,,,,J1772,US,,,,Public - Appeler à l'avance,,public,CALL,,CAR_DEALER,,,,,,,Free,,,,,,,,,,false,1,0,1,0,0,0,0,0,0
ELEC,Lithia Building at the Commons,148 N Riverside Ave,,Medford,OR,97501,,541-776-6401,E,,Public,24 hours daily,,,,,,2,,,Non-Networked,,GPS,42.328866,-122.871814,2020-10-09,103976,2021-03-11 23:22:17 UTC,P,,,2018-10-01,,,,,J1772,US,,,,Public,,public,,,HOTEL,,,,,,,Free,,,,,,,,,,false,2,0,2,0,0,0,0,0,0
ELEC,Ponzi Vineyards,19500 SW Mountain Home Rd,,Sherwood,OR,97140,,503-628-1227,E,,Public,Vineyard business hours,,,,,,1,,,Non-Networked,,GPS,45.380227,-122.93602,2022-06-14,103994,2022-06-14 16:24:51 UTC,P,,,2018-10-01,,,,,J1772,US,,,,Public,,public,,,BREWERY_DISTILLERY_WINERY,,,,,,,Free,,,,,,,,,,false,1,0,1,0,0,0,0,0,0
ELEC,FivePine Lodge and Spa,1021 E Desperado Trail,,Sisters,OR,97759,,541-549-5900,E,,Public,24 hours daily; for guest use only; see front desk for access,,,,,,1,,,Non-Networked,,GPS,44.285827,-121.536435,2020-12-03,103996,2022-04-28 20:01:31 UTC,P,,,2018-10-01,,,,,J1772,US,,,,Public,,public,,,HOTEL,,,,,,,Free,,,,,,,,,,true,1,0,1,0,0,0,0,0,0
ELEC,Talent Community Center,106 Home St,,Talent,OR,97540,,541-535-1566,E,,Public,24 hours daily,,,,,,2,,,Non-Networked,,GPS,42.245028,-122.790141,2021-01-14,103997,2021-03-11 23:22:17 UTC,P,,,2018-10-01,,,,,J1772,US,,,,Public,,public,,,REC_SPORTS_FACILITY,,,,,,,Free,,,,,,,,,,false,2,0,2,0,0,0,0,0,0
ELEC,Providence - Portland Medical Center - Glisan Parking Garage - Valet Parking,4805 NE Glisan St,"Entrance gate off of NE Irving St. - A 
Level Parking. Valet Parking Only
",Portland,OR,97213,,888-998-2546,E,,Public,MON: 24 hours | TUE: 24 hours | WED: 24 hours | THU: 24 hours | FRI: 24 hours | SAT: 24 hours | SUN: 24 hours,,,,,,4,,,Blink Network,http://www.blinkcharging.com/,GPS,45.527677,-122.611475,2022-10-05,104060,2022-10-05 22:58:52 UTC,,,,2018-10-12,,,,,J1772,US,,,,Public,,public,,,,,,,,,,Level 2: $0.49 per kWh,,,,,,,,,,,4,0,4,0,0,0,0,0,0
ELEC,Lassen Chevrolet Toyota,1205 Price Rd SE,,Albany,OR,97322,,541-926-4236,E,,Public - Call ahead,Dealership business hours; customer use only,,,,,,,1,,Non-Networked,,GPS,44.630214,-123.055678,2021-06-07,104257,2022-04-28 20:01:31 UTC,P,,,2020-08-10,,,,,J1772COMBO,US,,,,Public - Appeler à l'avance,,public,CALL,,CAR_DEALER,,,,,,,Free,,,,,,,,,,true,1,0,0,1,0,0,0,0,0
ELEC,Windermere on the Beach,3250 Beach Loop,,Bandon,OR,97411,,541-347-3710,E,,Public,24 hours daily,,,,,,1,,,Non-Networked,,GPS,43.095269,-124.430871,2020-04-08,104258,2021-03-11 23:22:17 UTC,P,,,2018-10-01,,,,,J1772,US,,,,Public,,public,,,HOTEL,,,,,,,Free,,,,,,,,,,false,1,0,1,0,0,0,0,0,0
ELEC,Power Chevrolet,1422 North Coast Hwy,,Newport,OR,97365,,541-265-7731,T,2022-05-01,TEMPORARILY UNAVAILABLE (Public - Call ahead),7:30am-7pm M-F; Dealership business hours,,,,,,1,1,,Non-Networked,,GPS,44.647644,-124.052744,2022-04-06,104259,2022-04-06 14:08:04 UTC,P,,,2020-08-12,,,,,J1772 J1772COMBO,US,,,,TEMPORAIREMENT SUSPENDU (Public - Appeler à l'avance),,public,CALL,,CAR_DEALER,,,,,,,Free,,,,,,,,,,false,2,0,1,1,0,0,0,0,0
ELEC,Hallmark Inn,744 SW Elizabeth St,,Newport,OR,97365,,541-265-2600,E,,Public,24 hours daily; for guest use only; see front desk for access,,,,,,1,,,Non-Networked,,GPS,44.630713,-124.063653,2021-01-14,104260,2022-04-28 20:01:31 UTC,P,,,2018-10-01,,,,,J1772,US,,,,Public,,public,,,INN,,,,,,,Free,,,,,,,,,,true,1,0,1,0,0,0,0,0,0
ELEC,Ken Ware Chevrolet,1595 Newmark St,,North Bend,OR,97459,,541-756-1181,E,,Public - Call ahead,"8am-6pm M-F, 9am-5pm Sat",,,,,,1,,,Non-Networked,,GPS,43.390905,-124.234151,2022-04-06,104261,2022-04-06 14:08:04 UTC,P,,,2018-10-01,,,,,J1772,US,,,,Public - Appeler à l'avance,,public,CALL,,CAR_DEALER,,,,,,,Free,,,,,,,,,,false,1,0,1,0,0,0,0,0,0
ELEC,Courtney Auto Repair,898 Winchester Ave,,Reedsport,OR,97467,,541-271-1243,E,,Public - Call ahead,Dealership business hours,,,,,,1,,,Non-Networked,,GPS,43.699725,-124.103324,2021-05-06,104264,2022-02-10 19:42:29 UTC,P,,,2018-10-01,,,,,J1772,US,,,,Public - Appeler à l'avance,,public,CALL,,CAR_DEALER,,,,,,,Free,,,,,,,,,,false,1,0,1,0,0,0,0,0,0
ELEC,Whole in the Wall,114 W Main St,,Mitchell,OR,97750,,541-462-3663,E,,Public,24 hours daily; for Tesla use only,,,,,,1,,,Non-Networked,,GPS,44.566585,-120.155408,2021-01-14,104743,2022-04-28 20:01:31 UTC,P,,,2018-10-01,,,,,TESLA,US,,,,Public,,public,,,STREET_PARKING,,,,,,,Free,,,,,,,,,,true,1,0,0,0,0,0,0,1,0
ELEC,GRESHAM HONDA SHOP02,24999 SE Stark St,,Troutdale,OR,97060,,888-758-4389,E,,Public,24 hours daily,,,,,,1,,,ChargePoint Network,http://www.chargepoint.com/,GPS,45.520048,-122.406379,2022-11-10,104928,2022-11-10 00:54:13 UTC,,,,2018-11-27,,,,,J1772,US,,,,Public,,public,,,,,,,,,,,,,,,,,,,,,1,0,1,0,0,0,0,0,0
ELEC,Lewis & Clark College - Holmes Hall,615 SW Palatine Hill Rd,,Lake Oswego,OR,97219,,,E,,Private,For student and staff use only,,,,,,1,,,Non-Networked,,GPS,45.447286,-122.669869,2022-04-06,105034,2022-04-06 14:08:04 UTC,P,,,2018-10-01,,,,,J1772,US,,,,Privé,,private,,,COLLEGE_CAMPUS,,,,,,,Free,,,,,,,,,,,1,0,1,0,0,0,0,0,0
ELEC,Stonecreek Golf Course,14603 S Stoneridge Dr,,Oregon City,OR,97045,,503-518-4653,E,,Public,6am-7pm daily,,,,,,2,,,Non-Networked,,GPS,45.298048,-122.563601,2021-01-14,105036,2021-03-11 23:22:17 UTC,P,,,2018-10-01,,,,,J1772,US,,,,Public,,public,,,REC_SPORTS_FACILITY,,,,,,,Free,,,,,,,,,,false,2,0,2,0,0,0,0,0,0
ELEC,Willamette Highway Parking,47452 OR-58,,Oakridge,OR,97463,,,E,,Public - Call ahead,Contact station for availability; key from Café required to unlock chargers,,,,,,2,,,Non-Networked,,GPS,43.746765,-122.490567,2020-03-03,105037,2021-03-11 23:22:17 UTC,P,,,2018-10-01,,,,,J1772,US,,,,Public - Appeler à l'avance,,public,CALL,,STREET_PARKING,,,,,,,Free,,,,,,,,,,false,2,0,2,0,0,0,0,0,0
ELEC,Tillamook Creamery,4165 N Highway 101,,Tillamook,OR,97141,,503-815-1300,E,,Public,24 hours daily,,,,,,6,,,Non-Networked,,GPS,45.483213,-123.843868,2020-09-03,105038,2021-03-11 23:22:17 UTC,P,,,2018-10-01,,,,,J1772 TESLA,US,,,,Public,,public,,,RESTAURANT,,,,,,,Free,,,,,,,,,,false,6,0,4,0,0,0,0,2,0
ELEC,SIMON WOODBURNOUTLET1,1001 N Arney Rd,,Woodburn,OR,97071,,888-758-4389,E,,Public,24 hours daily,,,,,,1,,,ChargePoint Network,http://www.chargepoint.com/,GPS,45.15813,-122.876818,2022-11-10,105207,2022-11-10 00:54:45 UTC,,,,2018-12-12,,,,,J1772,US,,,,Public,,public,,,,,,,,,,,,,,,,,,,,,1,0,1,0,0,0,0,0,0
ELEC,Guaranty Chevrolet,20 Highway 99 S,,Junction City,OR,97448,,541-234-3011,E,,Public - Call ahead,"Level 2: 24 hours daily, DC Fasr: charger inside the service center, call ahead to schedule",,,,,,2,1,,Non-Networked,,GPS,44.214122,-123.205072,2022-06-14,105360,2022-06-14 16:24:51 UTC,P,,,2018-12-01,,,,,J1772 J1772COMBO,US,,,,Public - Appeler à l'avance,,public,CALL,,CAR_DEALER,,,,,,,Free,,,,,,,,,,true,3,0,2,1,0,0,0,0,0
ELEC,Airport Chevrolet,3001 Biddle Rd,,Medford,OR,97504,,541-622-2004,E,,Public - Call ahead,Dealership business hours,,,,,,3,1,,Non-Networked,,GPS,42.361323,-122.876631,2022-03-07,105364,2022-03-07 19:49:53 UTC,P,,,2018-12-01,,,,,J1772 J1772COMBO,US,,,,Public - Appeler à l'avance,,public,CALL,,CAR_DEALER,,,,,,,Free,,,,,,,,,,false,4,0,3,1,0,0,0,0,0
ELEC,Palm Cottages - Tesla Destination,1065 Siskiyou Blvd,,Ashland,OR,97520,,541-482-2636  877-798-3752,E,,Public,24 hours daily; for customer use only,,,,,,2,,,Tesla Destination,https://www.tesla.com/destination-charging,200-9,42.188557,-122.69705,2020-11-03,115344,2021-03-11 23:22:17 UTC,P,,,2016-08-15,,,,,J1772 TESLA,US,,,,Public,,public,,,HOTEL,,,,,,,Free,,,,,,,,,,,2,0,1,0,0,0,0,1,0
ELEC,The Peerless Hotel - Tesla Destination,243 4th St,,Ashland,OR,97520,,541-488-1082  877-798-3752,E,,Public,24 hours daily; for customer use only; see front desk for access,,,,,,2,,,Tesla Destination,https://www.tesla.com/destination-charging,200-9,42.197532,-122.707815,2020-11-03,115345,2021-03-11 23:22:17 UTC,P,,,2018-10-01,,,,,TESLA,US,,,,Public,,public,,,HOTEL,,,,,,,Free,,,,,,,,,,,2,0,0,0,0,0,0,2,0
ELEC,RedTail Inn - Tesla Destination,550 E Main St,,Ashland,OR,97520,,541-778-8788  877-798-3752,E,,Public - Call ahead,24 hours daily; for customer use only,,,,,,2,,,Tesla Destination,https://www.tesla.com/destination-charging,200-9,42.194127,-122.707956,2020-11-03,115346,2021-03-11 23:22:17 UTC,P,,,2018-10-01,,,,,TESLA,US,,,,Public - Appeler à l'avance,,public,CALL,,INN,,,,,,,Free,,,,,,,,,,,2,0,0,0,0,0,0,2,0
ELEC,Plaza Inn & Suites Ashland Creek - Tesla Destination,98 Central Ave,,Ashland,OR,97520,,541-488-8900  877-798-3752,E,,Public,24 hours daily; for customer use only; see front desk for access,,,,,,4,,,Tesla Destination,https://www.tesla.com/destination-charging,200-9,42.199523,-122.715393,2020-11-03,115347,2021-03-11 23:22:17 UTC,P,,,2016-02-01,,,,,TESLA,US,,,,Public,,public,,,HOTEL,,,,,,,Free,,,,,,,,,,,4,0,0,0,0,0,0,4,0
ELEC,Bandon Dunes Golf Resort - Tesla Destination,57744 Round Lake,,Bandon,OR,97411,,800-742.0172  877-798-3752,E,,Public - Call ahead,24 hours daily; for customer use only,,,,,,3,,,Tesla Destination,https://www.tesla.com/destination-charging,200-8,43.186682,-124.38933,2020-11-03,115348,2021-03-11 23:22:17 UTC,P,,,2017-03-01,,,,,J1772 TESLA,US,,,,Public - Appeler à l'avance,,public,CALL,,HOTEL,,,,,,,Free,,,,,,,,,,,3,0,1,0,0,0,0,2,0
ELEC,Bandon Crossings Golf Course - Tesla Destination,87530 Dew Valley Ln,,Bandon,OR,97411,,541-347-3232  877-798-3752,E,,Public,24 hours daily; for customer use only,,,,,,2,,,Tesla Destination,https://www.tesla.com/destination-charging,200-9,43.034574,-124.406065,2020-11-03,115349,2021-03-11 23:22:17 UTC,P,,,2016-05-01,,,,,J1772 TESLA,US,,,,Public,,public,,,REC_SPORTS_FACILITY,,,,,,,Free,,,,,,,,,,,2,0,1,0,0,0,0,1,0
ELEC,The Oxford Hotel - Tesla Destination,10 NW Minnesota Ave,,Bend,OR,97701,,542-610-3401  877-798-3752,E,,Public,24 hours daily; for customer use only; see front desk for access,,,,,,3,,,Tesla Destination,https://www.tesla.com/destination-charging,200-9,44.05769,-121.312151,2020-11-03,115350,2021-03-11 23:22:17 UTC,P,,,2015-05-01,,,,,J1772 TESLA,US,,,,Public,,public,,,HOTEL,,,,,,,Free,,,,,,,,,,,3,0,1,0,0,0,0,2,0
ELEC,Fairfield Inn & Suites Bend - Tesla Destination,1626 NW Wall St,,Bend,OR,97701,,541-318-1747  877-798-3752,E,,Public,24 hours daily; for customer use only,,,,,,2,,,Tesla Destination,https://www.tesla.com/destination-charging,200-9,44.066467,-121.308158,2020-11-03,115352,2021-03-11 23:22:17 UTC,P,,,2016-08-15,,,,,J1772 TESLA,US,,,,Public,,public,,,HOTEL,,,,,,,Free,,,,,,,,,,,2,0,1,0,0,0,0,1,0
ELEC,Brasada Ranch - Tesla Destination,16986 SW Brasada Ranch Rd,,Bend,OR,97753,,855-259-6507  877-798-3752,E,,Public,24 hours daily; for customer use only; see front desk for access,,,,,,8,,,Tesla Destination,https://www.tesla.com/destination-charging,200-9,44.153848,-121.054257,2020-11-03,115353,2021-03-11 23:22:17 UTC,P,,,2018-10-01,,,,,J1772 TESLA,US,,,,Public,,public,,,HOTEL,,,,,,,Free,,,,,,,,,,,8,0,2,0,0,0,0,6,0
ELEC,Mount Bachelor Village Resort - Tesla Destination,19717  Mt. Bachelor Dr,,Bend,OR,97702,,800-547-5204  877-798-3752,E,,Public - Call ahead,24 hours daily; for customer use only,,,,,,3,,,Tesla Destination,https://www.tesla.com/destination-charging,200-9,44.03486,-121.33283,2020-11-03,115354,2021-03-11 23:22:17 UTC,P,,,2017-09-01,,,,,TESLA,US,,,,Public - Appeler à l'avance,,public,CALL,,HOTEL,,,,,,,Free,,,,,,,,,,,3,0,0,0,0,0,0,3,0
ELEC,Riverhouse Hotel & Convention Center - Tesla Destination,3075 US-97 BUS,,Bend,OR,97701,,541-389-3111  877-798-3752,E,,Public,24 hours daily; for customer use only; see front desk for access,,,,,,2,,,Tesla Destination,https://www.tesla.com/destination-charging,GPS,44.08071,-121.305244,2020-11-03,115355,2021-03-11 23:22:17 UTC,P,,,2014-08-01,,,,,TESLA,US,,,,Public,,public,,,HOTEL,,,,,,,Free,,,,,,,,,,,2,0,0,0,0,0,0,2,0
ELEC,Sunriver Resort - Tesla Destination,57071 Great Hall Loop,,Bend,OR,97707,,800-801-8765  877-798-3752,E,,Public,24 hours daily; for customer use only; see front desk for access,,,,,,1,,,Tesla Destination,https://www.tesla.com/destination-charging,200-9,43.871284,-121.444202,2020-11-03,115356,2021-03-11 23:22:17 UTC,P,,,2014-07-01,,,,,TESLA,US,,,,Public,,public,,,HOTEL,,,,,,,Free,,,,,,,,,,,1,0,0,0,0,0,0,1,0
ELEC,Tetherow Lodge & Golf Course - Tesla Destination,61238  Skyline Ranch Rd,,Bend,OR,97702,,877-298-2582  877-798-3752,E,,Public,24 hours daily; for customer use only; see front desk for access,,,,,,3,,,Tesla Destination,https://www.tesla.com/destination-charging,200-8,44.02464,-121.366469,2020-11-03,115357,2021-03-11 23:22:17 UTC,P,,,2015-05-01,,,,,J1772 TESLA,US,,,,Public,,public,,,HOTEL,,,,,,,Free,,,,,,,,,,,3,0,1,0,0,0,0,2,0
ELEC,TownePlace Inn & Suites Bend - Tesla Destination,755 SW 13th Pl,,Bend,OR,97702,,541-382-5006  877-798-3752,E,,Public,24 hours daily; for customer use only,,,,,,2,,,Tesla Destination,https://www.tesla.com/destination-charging,200-8,44.042835,-121.330692,2020-11-03,115358,2021-03-11 23:22:17 UTC,P,,,2016-08-15,,,,,J1772 TESLA,US,,,,Public,,public,,,HOTEL,,,,,,,Free,,,,,,,,,,,2,0,1,0,0,0,0,1,0
ELEC,Deschutes Brewery - Tesla Destination,901 SW Simpson Ave,,Bend,OR,97702,,541-385-8606  877-798-3752,E,,Public,24 hours daily; for customer use only,,,,,,4,,,Tesla Destination,https://www.tesla.com/destination-charging,200-9,44.046772,-121.322153,2020-11-03,115359,2021-03-11 23:22:17 UTC,P,,,2017-09-01,,,,,J1772 TESLA,US,,,,Public,,public,,,BREWERY_DISTILLERY_WINERY,,,,,,,Free,,,,,,,,,,,4,0,2,0,0,0,0,2,0
ELEC,Cannon Beach Hotel - Tesla Destination,1116 S Hemlock St,,Cannon Beach,OR,97110,,503-436-1392  877-798-3752,E,,Public,24 hours daily; for customer use only; see front desk for access,,,,,,2,,,Tesla Destination,https://www.tesla.com/destination-charging,200-9,45.889872,-123.962172,2020-11-03,115360,2021-03-11 23:22:17 UTC,P,,,2016-02-01,,,,,J1772 TESLA,US,,,,Public,,public,,,HOTEL,,,,,,,Free,,,,,,,,,,,2,0,1,0,0,0,0,1,0
ELEC,Surfsand Resort - Tesla Destination,148  W Gower Ave,,Cannon Beach,OR,97110,,800-547-6100  877-798-3752,E,,Public,24 hours daily; for customer use only; see front desk for access,,,,,,5,,,Tesla Destination,https://www.tesla.com/destination-charging,200-9,45.890582,-123.962988,2020-11-03,115361,2021-03-11 23:22:17 UTC,P,,,2015-05-26,,,,,J1772 TESLA,US,,,,Public,,public,,,HOTEL,,,,,,,Free,,,,,,,,,,,5,0,2,0,0,0,0,3,0
ELEC,Stephanie Inn - Tesla Destination,2740  S Pacific St,,Cannon Beach,OR,97145,,503-436-2221  877-798-3752,E,,Public - Call ahead,24 hours daily; for customer use only,,,,,,5,,,Tesla Destination,https://www.tesla.com/destination-charging,200-9,45.877155,-123.961875,2020-11-03,115362,2021-03-11 23:22:17 UTC,P,,,2015-03-01,,,,,J1772 TESLA,US,,,,Public - Appeler à l'avance,,public,CALL,,INN,,,,,,,Free,,,,,,,,,,,5,0,2,0,0,0,0,3,0
ELEC,The Courtyard - Tesla Destination,964 S Hemlock St,,Cannon Beach,OR,97110,,503-436-1392  877-798-3752,E,,Public,24 hours daily; for customer use only; see front desk for access,,,,,,2,,,Tesla Destination,https://www.tesla.com/destination-charging,200-9,45.890974,-123.962233,2020-11-03,115363,2021-03-11 23:22:17 UTC,P,,,2016-02-01,,,,,J1772 TESLA,US,,,,Public,,public,,,HOTEL,,,,,,,Free,,,,,,,,,,,2,0,1,0,0,0,0,1,0
ELEC,Red Lion Hotel Coos Bay - Tesla Destination,1313 North Bayshore Dr,,Coos Bay,OR,97420,,541-267-4141  877-798-3752,E,,Public,24 hours daily; for customer use only; see front desk for access,,,,,,2,,,Tesla Destination,https://www.tesla.com/destination-charging,200-9,43.377235,-124.217313,2020-11-03,115364,2021-03-11 23:22:17 UTC,P,,,2016-08-15,,,,,J1772 TESLA,US,,,,Public,,public,,,HOTEL,,,,,,,Free,,,,,,,,,,,2,0,1,0,0,0,0,1,0
ELEC,University Inn Corvallis - Tesla Destination,350 SW 4th St,,Corvallis,OR,97333,,541-753-4496  877-798-3752,E,,Public,24 hours daily; for customer use only; see front desk for access,,,,,,4,,,Tesla Destination,https://www.tesla.com/destination-charging,200-9,44.562057,-123.263617,2020-11-03,115365,2021-03-11 23:22:17 UTC,P,,,2018-10-01,,,,,TESLA,US,,,,Public,,public,,,INN,,,,,,,Free,,,,,,,,,,,4,0,0,0,0,0,0,4,0
ELEC,Best Western Corvallis - Tesla Destination,925 NW Garfield Ave,,Corvallis,OR,97330,,541-758-8571  877-798-3752,E,,Public,24 hours daily; for customer use only; see front desk for access,,,,,,3,,,Tesla Destination,https://www.tesla.com/destination-charging,200-9,44.583488,-123.258543,2020-11-03,115366,2021-03-11 23:22:17 UTC,P,,,2018-10-01,,,,,TESLA,US,,,,Public,,public,,,HOTEL,,,,,,,Free,,,,,,,,,,,3,0,0,0,0,0,0,3,0
ELEC,Crater Lake National Park - Tesla Destination,569 Mazama Dr,,Crater Lake,OR,97604,,888-774-2728  877-798-3752,E,,Public,24 hours daily,,,,,,2,,,Tesla Destination,https://www.tesla.com/destination-charging,GPS,42.867509,-122.167297,2020-11-03,115367,2021-03-11 23:22:17 UTC,P,,,2016-02-01,,,,,J1772 TESLA,US,,,,Public,,public,,,NATL_PARK,,,,,,,Free,,,,,,,,,,,2,0,1,0,0,0,0,1,0
ELEC,Stoller Family Estate - Tesla Destination,16161 NE McDougall Rd,,Dayton,OR,97114,,503-864-3404  877-798-3752,E,,Public,24 hours daily; for customer use only,,,,,,2,,,Tesla Destination,https://www.tesla.com/destination-charging,GPS,45.24117,-123.069729,2020-11-03,115368,2021-03-11 23:22:17 UTC,P,,,2018-11-01,,,,,J1772 TESLA,US,,,,Public,,public,,,BREWERY_DISTILLERY_WINERY,,,,,,,Free,,,,,,,,,,,2,0,1,0,0,0,0,1,0
ELEC,Domaine Serene - Tesla Destination,6555 NE Hilltop Ln,,Dayton,OR,97114,,503-864-4600  877-798-3752,E,,Public - Call ahead,24 hours daily; for customer use only,,,,,,2,,,Tesla Destination,https://www.tesla.com/destination-charging,200-9,45.27009,-123.069863,2020-11-03,115369,2021-03-11 23:22:17 UTC,P,,,2017-03-01,,,,,J1772 TESLA,US,,,,Public - Appeler à l'avance,,public,CALL,,OTHER_ENTERTAINMENT,,,,,,,Free,,,,,,,,,,,2,0,1,0,0,0,0,1,0
ELEC,Domaine Drouhin - Tesla Destination,6750 NE Breyman Orchards Rd,,Dayton,OR,97114,,503-864-2700  877-798-3752,E,,Public,24 hours daily; for customer use only,,,,,,1,,,Tesla Destination,https://www.tesla.com/destination-charging,200-9,45.265248,-123.055793,2020-11-03,115370,2021-03-11 23:22:17 UTC,P,,,2015-05-01,,,,,TESLA,US,,,,Public,,public,,,OTHER_ENTERTAINMENT,,,,,,,Free,,,,,,,,,,,1,0,0,0,0,0,0,1,0
ELEC,"Whale Cove Inn, a Select Registry Property - Tesla Destination",2345 S Highway 101,,Depoe Bay,OR,97341,,541-765-4300  877-798-3752,E,,Public,24 hours daily; for customer use only; see front desk for access,,,,,,1,,,Tesla Destination,https://www.tesla.com/destination-charging,200-9,44.786899,-124.070605,2020-11-03,115371,2021-03-11 23:22:17 UTC,P,,,2015-05-01,,,,,TESLA,US,,,,Public,,public,,,INN,,,,,,,Free,,,,,,,,,,,1,0,0,0,0,0,0,1,0
ELEC,Lange Estate Winery and Vineyards - Tesla Destination,18380 NE Buena Vista Dr,,Dundee,OR,97115,,503-538-6476  877-798-3752,E,,Public,24 hours daily; for customer use only,,,,,,1,,,Tesla Destination,https://www.tesla.com/destination-charging,200-9,45.294038,-123.040682,2020-11-03,115372,2021-03-11 23:22:17 UTC,P,,,2016-05-01,,,,,TESLA,US,,,,Public,,public,,,BREWERY_DISTILLERY_WINERY,,,,,,,Free,,,,,,,,,,,1,0,0,0,0,0,0,1,0
ELEC,Hyland Estates - Tesla Destination,20980 NE Niederberger Rd,,Dundee,OR,97115,,503-554-4200  877-798-3752,E,,Public,24 hours daily,,,,,,1,,,Tesla Destination,https://www.tesla.com/destination-charging,200-9,45.268997,-123.020986,2020-11-03,115373,2021-03-11 23:22:17 UTC,P,,,2016-02-01,,,,,TESLA,US,,,,Public,,public,,,BREWERY_DISTILLERY_WINERY,,,,,,,Free,,,,,,,,,,,1,0,0,0,0,0,0,1,0
ELEC,Estacada City Hall - Tesla Destination,475 SE Main St,,Estacada,OR,97023,,503-630-8270  877-798-3752,E,,Public,24 hours daily,,,,,,4,,,Tesla Destination,https://www.tesla.com/destination-charging,200-9,45.286178,-122.334465,2020-11-03,115374,2021-03-11 23:22:17 UTC,P,,,2018-10-01,,,,,J1772 TESLA,US,,,,Public,,public,,,OFFICE_BLDG,,,,,,,Free,,,,,,,,,,,4,0,2,0,0,0,0,2,0
ELEC,Riverhouse Inn - Tesla Destination,1202 Bay St,,Florence,OR,97439,,541-997-3933  877-798-3752,E,,Public - Call ahead,24 hours daily; for customer use only,,,,,,4,,,Tesla Destination,https://www.tesla.com/destination-charging,200-9,43.966643,-124.109379,2020-11-03,115375,2021-03-11 23:22:17 UTC,P,,,2018-10-01,,,,,J1772 TESLA,US,,,,Public - Appeler à l'avance,,public,CALL,,INN,,,,,,,Free,,,,,,,,,,,4,0,1,0,0,0,0,3,0
ELEC,Old Town Inn - Tesla Destination,170 US-101,,Florence,OR,97439,,541-997-7131  877-798-3752,E,,Public - Call ahead,24 hours daily; for customer use only,,,,,,4,,,Tesla Destination,https://www.tesla.com/destination-charging,200-8,43.967603,-124.107901,2020-11-03,115376,2021-03-11 23:22:17 UTC,P,,,2018-10-01,,,,,J1772 TESLA,US,,,,Public - Appeler à l'avance,,public,CALL,,INN,,,,,,,Free,,,,,,,,,,,4,0,1,0,0,0,0,3,0
ELEC,Driftwood Shores Resort & Conference Center - Tesla Destination,88416 1st Ave,,Florence,OR,97439,,541-997-8263  877-798-3752,E,,Public,24 hours daily; for customer use only; see front desk for access,,,,,,6,,,Tesla Destination,https://www.tesla.com/destination-charging,200-9,44.036758,-124.132855,2020-11-03,115377,2021-03-11 23:22:17 UTC,P,,,2011-08-01,,,,,J1772 TESLA,US,,,,Public,,public,,,HOTEL,,,,,,,Free,,,,,,,,,,,6,0,2,0,0,0,0,4,0
ELEC,Apolloni Vineyards Winery - Tesla Destination,14135 NW Timmerman Rd,,Forest Grove,OR,97116,,503-359-3606  877-798-3752,E,,Public,24 hours daily; for customer use only,,,,,,2,,,Tesla Destination,https://www.tesla.com/destination-charging,200-9,45.622895,-123.21977,2020-11-03,115378,2021-03-11 23:22:17 UTC,P,,,2017-09-01,,,,,TESLA,US,,,,Public,,public,,,BREWERY_DISTILLERY_WINERY,,,,,,,Free,,,,,,,,,,,2,0,0,0,0,0,0,2,0
